"","city_name","lon","lat","flights.sum","type","cancelled.percent","delay.percent","nas_delay.percent","carrier_delay.percent","weather_delay.percent","security_delay.percent","late_aircraft_delay.percent"
"1","Aberdeen, SD",-98.4864829,45.4646985,728,"destination",0.0151098901098901,0.164835164835165,0.043956043956044,0.0370879120879121,0.00961538461538462,0,0.0549450549450549
"2","Abilene, TX",-99.7331439,32.4487364,629,"destination",0.0317965023847377,0.246422893481717,0.127186009538951,0.0890302066772655,0.0333863275039746,0,0.12241653418124
"3","Adak Island, AK",-176.6217472,51.7615874,103,"destination",0.0776699029126214,0.145631067961165,0.0776699029126214,0.0485436893203883,0.00970873786407767,0,0.00970873786407767
"4","Akron, OH",-81.5190053,41.0814447,6178,"destination",0.0213661379087083,0.337973454192295,0.105050178051149,0.108773065717061,0.0140822272580123,0.00129491744901263,0.123340887018453
"5","Albany, GA",-84.155741,31.5785074,630,"destination",0.00793650793650794,0.228571428571429,0.0936507936507937,0.103174603174603,0.0126984126984127,0,0.0682539682539682
"6","Albany, NY",-73.7562317,42.6525793,10548,"destination",0.0167804323094425,0.382157755024649,0.0725255972696246,0.117368221463785,0.0118505877891543,0.000853242320819113,0.102199469093667
"7","Albuquerque, NM",-106.650422,35.0843859,20702,"destination",0.00729398125784948,0.415756931697421,0.0699932373683702,0.11873248961453,0.00632789102502174,0.000869481209544972,0.124722249058062
"8","Alexandria, LA",-92.4451371,31.3112936,1951,"destination",0.0287032291132752,0.203997949769349,0.0732957457713993,0.0717580727831881,0.0123013839056894,0,0.061506919528447
"9","Allentown/Bethlehem/Easton, PA",-75.441415,40.651834,2853,"destination",0.0143708377146863,0.281458114265685,0.0911321416053277,0.094987732211707,0.0119172800560813,0.000350508236943568,0.0837714686295128
"10","Alpena, MI",-83.4327528,45.0616794,623,"destination",0.0497592295345104,0.210272873194221,0.0417335473515249,0.0417335473515249,0.00481540930979133,0,0.0770465489566613
"11","Amarillo, TX",-101.8312969,35.2219971,3693,"destination",0.0186839967506093,0.337665854318982,0.0804224207961007,0.0934199837530463,0.00812347684809098,0.000541565123206066,0.112374763065259
"12","Anchorage, AK",-149.9002778,61.2180556,17443,"destination",0.0107206329186493,0.291864931491143,0.0944218311070343,0.0584188499684687,0.0064782434214298,0.00676489136043112,0.0517686177836381
"13","Appleton, WI",-88.4153847,44.2619309,3324,"destination",0.0144404332129964,0.243682310469314,0.0682912154031288,0.0761131167268351,0.00842358604091456,0,0.0764139590854392
"14","Arcata/Eureka, CA",-124.1065825,40.9709197,1205,"destination",0.0365145228215768,0.280497925311203,0.106224066390041,0.0796680497925311,0.0141078838174274,0,0.136929460580913
"15","Asheville, NC",-82.5514869,35.5950581,4588,"destination",0.016564952048823,0.32258064516129,0.0902353966870096,0.114210985178727,0.012205754141238,0.0013077593722755,0.11922406277245
"16","Ashland, WV",-81.3526016,37.4084488,130,"destination",0.00769230769230769,0.307692307692308,0.0769230769230769,0.115384615384615,0.0153846153846154,0,0.0846153846153846
"17","Aspen, CO",-106.8175387,39.1910983,6263,"destination",0.0306562350311352,0.30273032093246,0.108414497844483,0.0849433178987706,0.0166054606418649,0.000479003672361488,0.0999520996327639
"18","Atlanta, GA",-84.3879824,33.7489954,366548,"destination",0.0120584480068095,0.298157403668824,0.0732509794078811,0.0693988236192804,0.00782162227048027,0.000360116546809695,0.073788426072438
"19","Atlantic City, NJ",-74.4229266,39.3642834,3444,"destination",0.029616724738676,0.296457607433217,0.123983739837398,0.0603948896631823,0.00987224157955865,0.00145180023228804,0.0421022067363531
"20","Augusta, GA",-82.0105148,33.4734978,2794,"destination",0.0103793843951324,0.325340014316392,0.0948460987831067,0.105225483178239,0.015748031496063,0,0.098067287043665
"21","Austin, TX",-97.7430608,30.267153,56033,"destination",0.00940517195224243,0.376474577481127,0.0848428604572306,0.107936394624596,0.0080309817429015,0.000571092035050774,0.102618100048186
"22","Bakersfield, CA",-119.0187125,35.3732921,2234,"destination",0.00581915846016115,0.254700089525515,0.0801253357206804,0.0769919427036705,0.00223813786929275,0.000895255147717099,0.0989256938227395
"23","Baltimore, MD",-76.6121893,39.2903848,103438,"destination",0.0184845027939442,0.391403546085578,0.0677894004137744,0.0914557512712929,0.00862352326997815,0.000812080666679557,0.0961058798507318
"24","Bangor, ME",-68.7712257,44.8016128,1894,"destination",0.0633579725448786,0.272439281942978,0.090285110876452,0.0813093980992608,0.00739176346356917,0,0.107180570221753
"25","Barrow, AK",-156.788611,71.2905556,833,"destination",0.0168067226890756,0.148859543817527,0.0420168067226891,0.021608643457383,0.0108043217286915,0,0.0396158463385354
"26","Baton Rouge, LA",-91.1871466,30.4514677,6913,"destination",0.0185158397222624,0.260957616085636,0.0807174887892377,0.0973528135397078,0.0046289599305656,0,0.0893967886590482
"27","Beaumont/Port Arthur, TX",-94.1265562,30.080174,241,"destination",0.0539419087136929,0.190871369294606,0.0912863070539419,0.0705394190871369,0.037344398340249,0,0.0871369294605809
"28","Belleville, IL",-89.9839935,38.5200504,324,"destination",0.00617283950617284,0.339506172839506,0.12962962962963,0.135802469135802,0.00308641975308642,0.00308641975308642,0.0925925925925926
"29","Bellingham, WA",-122.4786854,48.7519112,1382,"destination",0.0130246020260492,0.219247467438495,0.0868306801736614,0.0658465991316932,0.00578871201157742,0.00144717800289436,0.0658465991316932
"30","Bemidji, MN",-94.8826861,47.471573,727,"destination",0.00962861072902338,0.182943603851444,0.0563961485557084,0.0343878954607978,0.00962861072902338,0,0.0605226960110041
"31","Bend/Redmond, OR",-121.299079,44.1617823,3899,"destination",0.0128238009746089,0.251859451141318,0.0856629905103873,0.0684790972044114,0.00615542446781226,0.000256476019492177,0.102846883816363
"32","Bethel, AK",-161.7558334,60.7922222,919,"destination",0.029379760609358,0.128400435255713,0.0467899891186072,0.0359085963003264,0.00544069640914037,0,0.0217627856365615
"33","Billings, MT",-108.5006904,45.7832856,3669,"destination",0.00354319978195694,0.233578631779777,0.0673207958571818,0.0730444262741892,0.0098119378577269,0,0.0561460888525484
"34","Binghamton, NY",-75.9179738,42.0986867,874,"destination",0.022883295194508,0.260869565217391,0.0778032036613272,0.0823798627002288,0.0137299771167048,0,0.0846681922196796
"35","Birmingham, AL",-86.80249,33.5206608,13529,"destination",0.0175179244585705,0.355458644393525,0.0718456648680612,0.108729396112056,0.0141917362702343,0.000295661172296548,0.105107546751423
"36","Bismarck/Mandan, ND",-100.8895761,46.8266603,2907,"destination",0.0147918816649467,0.254557963536292,0.0853113175094599,0.0791193670450636,0.0120399036807706,0,0.0763673890608875
"37","Bloomington/Normal, IL",-88.9906312,40.5142026,2536,"destination",0.0157728706624606,0.271293375394322,0.082807570977918,0.097397476340694,0.013801261829653,0.000394321766561514,0.102917981072555
"38","Boise, ID",-116.2023137,43.6150186,17289,"destination",0.00439585863844063,0.32274856845393,0.066805483255249,0.0791832957371739,0.00607322575047718,0.000578402452426398,0.0980970559315171
"39","Boston, MA",-71.0588801,42.3600825,131545,"destination",0.0281500627161808,0.377969516135163,0.137443460412786,0.10869284275343,0.0110760576228667,0.000440913755748983,0.117860808088487
"40","Bozeman, MT",-111.0429339,45.6769979,5557,"destination",0.00467878351628577,0.269569911822926,0.0890768400215944,0.0791794133525283,0.0106172395177254,0.000179953212164837,0.0601043728630556
"41","Brainerd, MN",-94.2020084,46.3526733,636,"destination",0.0157232704402516,0.177672955974843,0.0455974842767296,0.0534591194968553,0.00786163522012579,0,0.0613207547169811
"42","Bristol/Johnson City/Kingsport, TN",-82.1888089,36.595141,2052,"destination",0.00925925925925926,0.288011695906433,0.0808966861598441,0.114035087719298,0.00925925925925926,0.000974658869395711,0.102826510721248
"43","Brownsville, TX",-97.4974838,25.9017472,1436,"destination",0.0313370473537604,0.185236768802228,0.0577994428969359,0.0564066852367688,0.0132311977715877,0.000696378830083565,0.0536211699164345
"44","Brunswick, GA",-81.4914894,31.1499528,694,"destination",0.0144092219020173,0.244956772334294,0.0893371757925072,0.105187319884726,0.00288184438040346,0,0.0648414985590778
"45","Buffalo, NY",-78.8783689,42.8864468,20373,"destination",0.0252785549501792,0.372208314926619,0.0836401119128258,0.134000883522309,0.0101114219800717,0.000539930299906739,0.114514308152948
"46","Bullhead City, AZ",-114.5285981,35.1359386,290,"destination",0,0.172413793103448,0.110344827586207,0.110344827586207,0,0,0.0620689655172414
"47","Burbank, CA",-118.3089661,34.1808392,26045,"destination",0.0149740833173354,0.405106546362066,0.0661547321942791,0.117719331925514,0.00218851986945671,0.000844691879439432,0.135227490881167
"48","Burlington, VT",-73.212072,44.4758825,5039,"destination",0.0468346894225045,0.312363564199246,0.091486406032943,0.121254217106569,0.0123040285770986,0.000198452073824171,0.109347092677118
"49","Butte, MT",-112.5347775,46.0038232,677,"destination",0.0118168389955687,0.155096011816839,0.0251107828655835,0.0295420974889217,0.017725258493353,0,0.0310192023633678
"50","Cape Girardeau, MO",-89.5181476,37.3058839,256,"destination",0.05078125,0.26171875,0.06640625,0.046875,0.00390625,0,0.125
"51","Casper, WY",-106.3251749,42.8500769,812,"destination",0.00123152709359606,0.147783251231527,0.0394088669950739,0.0480295566502463,0.00738916256157635,0,0.0283251231527094
"52","Cedar City, UT",-113.0618931,37.6774769,623,"destination",0.00160513643659711,0.131621187800963,0.165329052969502,0.0609951845906902,0.00321027287319422,0,0.0304975922953451
"53","Cedar Rapids/Iowa City, IA",-104.990251,41.9778795,6878,"destination",0.0135213724920035,0.248473393428322,0.0904332654841524,0.0815644082582146,0.0148298924105845,0.000290782204129107,0.0837452747891829
"54","Champaign/Urbana, IL",-88.2433829,40.1164204,762,"destination",0.0393700787401575,0.242782152230971,0.122047244094488,0.062992125984252,0.0459317585301837,0,0.0853018372703412
"55","Charleston, SC",-79.9310512,32.7764749,16762,"destination",0.0301276697291493,0.331165732012886,0.0708745973034244,0.0999880682496122,0.0106789165970648,0.000477270015511275,0.0877580241021358
"56","Charleston/Dunbar, WV",-81.7373485,38.3606509,2788,"destination",0.0329985652797704,0.278335724533716,0.0746054519368723,0.093974175035868,0.0190100430416069,0.000358680057388809,0.092180774748924
"57","Charlotte, NC",-80.8431267,35.2270869,149860,"destination",0.0182103296409983,0.28930334979314,0.0735953556652876,0.0752235419725077,0.00928199653009476,0.000620579207260109,0.0763579340718003
"58","Charlottesville, VA",-78.4766781,38.0293059,3273,"destination",0.0302474793767186,0.336083104185762,0.106935533150015,0.112740604949588,0.0137488542621448,0.000611060189428659,0.135655362053162
"59","Chattanooga, TN",-85.3096801,35.0456297,4885,"destination",0.0190378710337769,0.312998976458547,0.111566018423746,0.107267144319345,0.0143295803480041,0.000204708290685773,0.11136131013306
"60","Chicago, IL",-87.6297982,41.8781136,375176,"destination",0.0183567179137258,0.309977184041623,0.10024095357912,0.0717130093609399,0.00868125892914259,0.000549075633835853,0.0930256732840054
"61","Cincinnati, OH",-84.5120196,39.1031182,29327,"destination",0.0162648753708187,0.32724110887578,0.0819040474647935,0.0922017253725236,0.0114229208579125,0.000272786169741194,0.100283015651106
"62","Clarksburg/Fairmont, WV",-80.1425781,39.4850848,373,"destination",0.0294906166219839,0.260053619302949,0.112600536193029,0.107238605898123,0.00536193029490617,0,0.109919571045576
"63","Cleveland, OH",-81.6943605,41.49932,40711,"destination",0.0170715531428852,0.317899339244922,0.0805679054800914,0.0939795141362285,0.00913757952396158,0.000147380314902606,0.0983763601974896
"64","Cody, WY",-109.0565308,44.5263422,993,"destination",0.0080563947633434,0.149043303121853,0.0453172205438066,0.0362537764350453,0.0080563947633434,0,0.0322255790533736
"65","College Station/Bryan, TX",-96.3344068,30.627977,1650,"destination",0.0260606060606061,0.183636363636364,0.0545454545454545,0.0642424242424242,0.00787878787878788,0,0.0636363636363636
"66","Colorado Springs, CO",-104.8213634,38.8338816,9705,"destination",0.0110252447192169,0.314374034003091,0.104482225656878,0.0977846470891293,0.00999484801648635,0.00020607934054611,0.107882534775889
"67","Columbia, MO",-92.3340724,38.9517053,1339,"destination",0.029126213592233,0.256908140403286,0.087378640776699,0.0791635548917102,0.0224047796863331,0,0.0963405526512323
"68","Columbia, SC",-81.0348144,34.0007104,4391,"destination",0.0191300387155545,0.304941926668185,0.0598952402641767,0.101799134593487,0.0152584832612161,0,0.0787975404235937
"69","Columbus, GA",-84.9877094,32.4609764,848,"destination",0.00707547169811321,0.273584905660377,0.0825471698113208,0.110849056603774,0.00943396226415094,0,0.0825471698113208
"70","Columbus, MS",-88.4272627,33.4956744,957,"destination",0.0135841170323929,0.260188087774295,0.0971786833855799,0.071055381400209,0.00731452455590387,0,0.119122257053292
"71","Columbus, OH",-82.9987942,39.9611755,30986,"destination",0.0168140450526044,0.363874007616343,0.0790679661782741,0.106725618021042,0.0100367908087523,0.000419544310333699,0.105273349254502
"72","CONCORD, NC",-80.579511,35.4087517,292,"destination",0.00684931506849315,0.318493150684932,0.089041095890411,0.0924657534246575,0.0136986301369863,0,0.0753424657534247
"73","Cordova, AK",-145.7525414,60.5424087,724,"destination",0.00966850828729282,0.203038674033149,0.0883977900552486,0.0566298342541436,0.00552486187845304,0,0.0662983425414365
"74","Corpus Christi, TX",-97.396381,27.8005828,3585,"destination",0.0396094839609484,0.307949790794979,0.0825662482566248,0.104044630404463,0.0136680613668061,0,0.111297071129707
"75","Dallas, TX",-96.7969879,32.7766642,70157,"destination",0.0152657610787234,0.459726043017803,0.0955571076300298,0.121342132645353,0.00602933420756304,0.000812463474777998,0.137163789785766
"76","Dallas/Fort Worth, TX",-97.0403352,32.8998091,210461,"destination",0.014976646504578,0.286936772133554,0.0866858942987062,0.0735528197623313,0.0112942540423166,0.000850513871928766,0.0788554649079877
"77","Dayton, OH",-84.1916069,39.7589478,8332,"destination",0.0249639942390783,0.306769083053289,0.0969755160825732,0.106577052328373,0.0159625540086414,0.000480076812289966,0.10741718674988
"78","Daytona Beach, FL",-81.0228331,29.2108147,2516,"destination",0.0151033386327504,0.341017488076312,0.0731319554848967,0.0949920508744038,0.0250397456279809,0.00158982511923688,0.0747217806041336
"79","Deadhorse, AK",-148.4597191,70.2001996,763,"destination",0.00655307994757536,0.155963302752294,0.0445609436435125,0.0406290956749672,0.00917431192660551,0,0.0235910878112713
"80","Denver, CO",-104.990251,39.7392358,226826,"destination",0.00646751254265384,0.326911377002636,0.0774778905416487,0.0785403789689013,0.00688633578161234,0.00046290989569097,0.0850078915115551
"81","Des Moines, IA",-93.6091064,41.6005448,10464,"destination",0.0122324159021407,0.308103975535168,0.0829510703363914,0.0950879204892966,0.0109900611620795,0.000191131498470948,0.0913608562691132
"82","Detroit, MI",-83.0457538,42.331427,137402,"destination",0.0119066680252107,0.288088965226125,0.0694676933377971,0.064984498042241,0.00926478508318656,0.000531287754181162,0.0816509221117597
"83","Devils Lake, ND",-98.8651202,48.112779,624,"destination",0.0432692307692308,0.22275641025641,0.0608974358974359,0.046474358974359,0.00480769230769231,0.0016025641025641,0.0897435897435897
"84","Dillingham, AK",-158.4575,59.0397222,84,"destination",0,0.130952380952381,0.0476190476190476,0.0595238095238095,0.0119047619047619,0,0
"85","Dothan, AL",-85.3904888,31.2232313,1293,"destination",0.0139211136890951,0.272235112142305,0.0951276102088167,0.0835266821345708,0.00618716163959783,0,0.11446249033256
"86","Dubuque, IA",-90.6645718,42.5005583,343,"destination",0.0583090379008746,0.204081632653061,0.116618075801749,0.0553935860058309,0.0379008746355685,0,0.102040816326531
"87","Duluth, MN",-92.1004852,46.7866719,2729,"destination",0.0359105899596922,0.278123854891902,0.0652253572737266,0.0787834371564676,0.0117259069256138,0,0.0809820447050202
"88","Durango, CO",-107.8800667,37.27528,1926,"destination",0.014018691588785,0.233125649013499,0.0794392523364486,0.0758047767393562,0.0083073727933541,0.000519210799584631,0.0794392523364486
"89","Eagle, CO",-106.8286507,39.6552634,1795,"destination",0.0161559888579387,0.319777158774373,0.133147632311978,0.106406685236769,0.0284122562674095,0.000557103064066852,0.0596100278551532
"90","Eau Claire, WI",-91.4984941,44.811349,687,"destination",0.0291120815138282,0.245997088791849,0.0902474526928675,0.0946142649199418,0.00873362445414847,0,0.0975254730713246
"91","El Paso, TX",-106.4850217,31.7618778,12399,"destination",0.0114525364948786,0.430760545205258,0.0687152189692717,0.126703766432777,0.00911363819662876,0.000403258327284458,0.136381966287604
"92","Elko, NV",-115.7631232,40.8324211,660,"destination",0.00303030303030303,0.0909090909090909,0.0636363636363636,0.0196969696969697,0.0121212121212121,0,0.0333333333333333
"93","Elmira/Corning, NY",-76.893638,42.15987,286,"destination",0,0.314685314685315,0.0664335664335664,0.111888111888112,0,0,0.0734265734265734
"94","Erie, PA",-80.085059,42.1292241,1368,"destination",0.0160818713450292,0.27046783625731,0.0855263157894737,0.0833333333333333,0.0087719298245614,0,0.0928362573099415
"95","Escanaba, MI",-87.0645801,45.7452466,625,"destination",0.0176,0.232,0.0656,0.0608,0.016,0,0.064
"96","Eugene, OR",-123.0867536,44.0520691,4146,"destination",0.00410033767486734,0.274963820549928,0.100820067534973,0.0805595754944525,0.00361794500723589,0.000241196333815726,0.101543656536421
"97","Evansville, IN",-87.5710898,37.9715592,2681,"destination",0.0220067139127191,0.251025736665423,0.0768370011189854,0.0831779186870571,0.010816859380828,0,0.092875792614696
"98","Fairbanks, AK",-147.7163888,64.8377778,3604,"destination",0.00693673695893452,0.250554938956715,0.0876803551609323,0.0474472807991121,0.00499445061043285,0.00249722530521643,0.0380133185349612
"99","Fargo, ND",-96.7898034,46.8771863,4139,"destination",0.0144962551340904,0.242812273496014,0.0785213819763228,0.0765885479584441,0.012080212611742,0.000241604252234839,0.0753805266972699
"100","Fayetteville, AR",-94.1718542,36.082156,7512,"destination",0.0170394036208733,0.276757188498403,0.0909211927582535,0.0867944621938232,0.0126464323748669,0,0.0847976570820021
"101","Fayetteville, NC",-78.8783585,35.0526641,1937,"destination",0.0144553433144037,0.325761486835312,0.0836344863190501,0.114610221992772,0.0191017036654621,0.00103252452245741,0.0980898296334538
"102","Flagstaff, AZ",-111.651302,35.1982836,1286,"destination",0.0147744945567652,0.199844479004666,0.0381026438569207,0.0451010886469673,0.0015552099533437,0,0.0660964230171073
"103","Flint, MI",-83.6874562,43.0125274,4109,"destination",0.0194694572888781,0.338525188610368,0.081041615964955,0.0825018252616208,0.0141153565344366,0.000486736432221952,0.105621805792164
"104","Florence, SC",-79.7625625,34.1954331,158,"destination",0.0126582278481013,0.386075949367089,0.113924050632911,0.189873417721519,0.0126582278481013,0,0.126582278481013
"105","Fort Lauderdale, FL",-80.1373174,26.1224386,88764,"destination",0.0238610247397594,0.384615384615385,0.115046640529945,0.121941327565229,0.00820152314001172,0.00100265873552341,0.0984520751656077
"106","Fort Myers, FL",-81.8723084,26.640628,31205,"destination",0.0187790418202211,0.341964428777439,0.10341291459702,0.107899375100144,0.0105752283287935,0.000352507610959782,0.0818779041820221
"107","Fort Smith, AR",-94.3985475,35.3859242,1383,"destination",0.0151843817787419,0.242227042660882,0.06941431670282,0.0932754880694143,0.00723065798987708,0,0.0903832248734635
"108","Fort Wayne, IN",-85.1393513,41.079273,6144,"destination",0.0146484375,0.3115234375,0.108235677083333,0.0955403645833333,0.013671875,0.000325520833333333,0.142903645833333
"109","Fresno, CA",-119.7871247,36.7377981,8842,"destination",0.00486315313277539,0.236824247907713,0.070006785795069,0.0680841438588555,0.0037321872879439,0,0.08979868807962
"110","Gainesville, FL",-82.3248262,29.6516344,2157,"destination",0.0125173852573018,0.307834955957348,0.0904033379694019,0.110338433008809,0.0139082058414465,0,0.0992118683356514
"111","Garden City, KS",-100.8726618,37.9716898,240,"destination",0.0208333333333333,0.175,0.0666666666666667,0.05,0.0458333333333333,0,0.0791666666666667
"112","Gillette, WY",-105.5022205,44.2910915,976,"destination",0.0133196721311475,0.207991803278689,0.0819672131147541,0.0655737704918033,0.00922131147540984,0,0.0850409836065574
"113","Grand Forks, ND",-97.0328547,47.9252568,1567,"destination",0.0159540523292916,0.209317166560306,0.0638162093171666,0.0638162093171666,0.00701978302488832,0,0.0606253988513082
"114","Grand Island, NE",-98.3420118,40.9263957,533,"destination",0.0206378986866792,0.281425891181989,0.108818011257036,0.101313320825516,0.0168855534709193,0,0.108818011257036
"115","Grand Junction, CO",-108.5506486,39.0638705,2874,"destination",0.00208768267223382,0.17223382045929,0.0487125956854558,0.0427974947807933,0.00452331245650661,0,0.046972860125261
"116","Grand Rapids, MI",-85.6680863,42.9633599,12658,"destination",0.0162742929372729,0.324063833148997,0.0846895244114394,0.101516827302891,0.0132722389003002,0.000237004266076789,0.0965397377152789
"117","Great Falls, MT",-111.3007715,47.5052849,1636,"destination",0.00366748166259169,0.201711491442543,0.0488997555012225,0.0592909535452323,0.00488997555012225,0,0.0452322738386308
"118","Green Bay, WI",-88.0132958,44.5133188,4425,"destination",0.0207909604519774,0.256271186440678,0.0874576271186441,0.0729943502824859,0.00949152542372881,0,0.0944632768361582
"119","Greensboro/High Point, NC",-79.8296743,36.0899873,7853,"destination",0.0241945753215332,0.322551890997071,0.0944861836240927,0.106838151025086,0.0169362027250732,0.000127339870113332,0.098051699987266
"120","Greenville, NC",-77.3663538,35.612661,100,"destination",0.03,0.33,0.15,0.18,0.02,0,0.13
"121","Greer, SC",-82.2270568,34.9387279,8201,"destination",0.0146323619070845,0.340080477990489,0.0740153639800024,0.109254968906231,0.0149981709547616,0.000365809047677113,0.101694915254237
"122","Gulfport/Biloxi, MS",-89.0928155,30.3674198,2893,"destination",0.0203940546145869,0.239198064293121,0.0774282751469063,0.0798479087452472,0.0152091254752852,0.00103698582786035,0.0584168683027999
"123","Gunnison, CO",-106.9253207,38.5458246,183,"destination",0.00546448087431694,0.240437158469945,0.092896174863388,0.120218579234973,0.0109289617486339,0,0.0382513661202186
"124","Gustavus, AK",-135.7369443,58.4133333,84,"destination",0.0476190476190476,0.214285714285714,0.0357142857142857,0.0476190476190476,0.0119047619047619,0,0.0357142857142857
"125","Hagerstown, MD",-77.7199932,39.6417629,35,"destination",0,0.428571428571429,0.114285714285714,0.285714285714286,0,0,0.142857142857143
"126","Hancock/Houghton, MI",-88.5809563,47.1268714,728,"destination",0.0508241758241758,0.256868131868132,0.092032967032967,0.0714285714285714,0.00824175824175824,0.00137362637362637,0.103021978021978
"127","Harlingen/San Benito, TX",-97.6311006,26.132576,2826,"destination",0.0290162774239207,0.444090587402689,0.0654635527246992,0.12208067940552,0.00601556970983723,0.000353857041755131,0.156404812455768
"128","Harrisburg, PA",-76.8867008,40.2731911,4262,"destination",0.0218207414359456,0.256217738151103,0.0739089629282027,0.0800093852651337,0.015485687470671,0,0.0652275926794932
"129","Hartford, CT",-72.6733723,41.7658043,23969,"destination",0.0237807167591472,0.36618131753515,0.0737202219533564,0.116942717676999,0.01138971171096,0.000542367224331428,0.0980433059368351
"130","Hattiesburg/Laurel, MS",-89.335421,31.468239,722,"destination",0.0318559556786704,0.331024930747922,0.142659279778393,0.0678670360110803,0.00554016620498615,0,0.227146814404432
"131","Hayden, CO",-107.2636842,40.4894302,1130,"destination",0.00884955752212389,0.292920353982301,0.12212389380531,0.0938053097345133,0.0247787610619469,0,0.0752212389380531
"132","Hays, KS",-99.3267702,38.8791783,663,"destination",0.0165912518853695,0.209653092006033,0.0920060331825038,0.0678733031674208,0.00603318250377074,0,0.0995475113122172
"133","Helena, MT",-112.0391057,46.5891452,1667,"destination",0.00419916016796641,0.213557288542292,0.0605878824235153,0.0551889622075585,0.00599880023995201,0,0.0557888422315537
"134","Hibbing, MN",-92.9376887,47.4271546,623,"destination",0.0160513643659711,0.130016051364366,0.0353130016051364,0.0337078651685393,0.0112359550561798,0,0.0369181380417336
"135","Hilo, HI",-155.0868193,19.7241106,6573,"destination",0.00167351285562148,0.250722653278564,0.00928038947208276,0.0768294538262589,0.00638977635782748,0.000152137532329226,0.0511182108626198
"136","Hobbs, NM",-103.1360403,32.7026116,659,"destination",0.0288315629742033,0.142640364188164,0.0515933232169954,0.039453717754173,0.00758725341426404,0,0.0288315629742033
"137","Honolulu, HI",-157.8583333,21.3069444,48152,"destination",0.00342664894500748,0.320817411530155,0.0265824887855125,0.0831741153015451,0.00882621697956471,0.000394583817909952,0.0630711081575012
"138","Houston, TX",-95.3698028,29.7604267,196851,"destination",0.0317041823511184,0.286902276340989,0.0868575724786768,0.072486296742206,0.00821941468420277,0.000355598904755373,0.0760829256645889
"139","Huntsville, AL",-86.5861037,34.7303688,5397,"destination",0.0200111172873819,0.272002964609968,0.0633685380767093,0.0857884009634982,0.0172317954419122,0.000555864369093941,0.0717065036131184
"140","Hyannis, MA",-70.2881124,41.6524911,94,"destination",0.0106382978723404,0.297872340425532,0.0851063829787234,0.180851063829787,0,0,0.127659574468085
"141","Idaho Falls, ID",-112.0407584,43.4926607,2455,"destination",0.00244399185336049,0.209368635437882,0.0615071283095723,0.0615071283095723,0.00814663951120163,0,0.0574338085539715
"142","Indianapolis, IN",-86.158068,39.768403,34036,"destination",0.0142496180514749,0.359795510635797,0.0756551886238101,0.105417792925138,0.00934304853684334,0.000440709836643554,0.104742037842285
"143","International Falls, MN",-93.4040679,48.6023149,625,"destination",0.0176,0.1728,0.0432,0.04,0.0096,0,0.0464
"144","Iron Mountain/Kingsfd, MI",-88.0720706,45.7949561,676,"destination",0.0103550295857988,0.198224852071006,0.0547337278106509,0.0606508875739645,0.00887573964497041,0,0.0680473372781065
"145","Islip, NY",-73.2103934,40.7298207,5924,"destination",0.0313977042538825,0.429608372721134,0.0638082376772451,0.115631330182309,0.00759621877110061,0.000506414584740041,0.12609723160027
"146","Ithaca/Cortland, NY",-76.5002026,42.4383677,1004,"destination",0.00796812749003984,0.25199203187251,0.0667330677290837,0.0737051792828685,0.0159362549800797,0.00099601593625498,0.0806772908366534
"147","Jackson, WY",-110.7624282,43.4799291,3726,"destination",0.00429414922168545,0.293344068706388,0.0856146001073537,0.0901771336553945,0.0150295222758991,0,0.0721953837895867
"148","Jackson/Vicksburg, MS",-90.8745758,32.3522304,5489,"destination",0.0211331754417927,0.257241756239752,0.0695937329203862,0.0799781380943706,0.0169429768628165,0.000364365093824012,0.06267079613773
"149","Jacksonville, FL",-81.655651,30.3321838,20777,"destination",0.0222361264860182,0.361553641045387,0.0887519853684362,0.12619723732974,0.0133320498628291,0.000385041151273042,0.100592000770082
"150","Jacksonville/Camp Lejeune, NC",-77.4013403,34.6250544,1472,"destination",0.0251358695652174,0.353940217391304,0.101902173913043,0.158288043478261,0.0115489130434783,0.00339673913043478,0.0923913043478261
"151","Jamestown, ND",-98.7084357,46.9105438,987,"destination",0.0233029381965552,0.185410334346505,0.0618034447821682,0.0526849037487335,0.00709219858156028,0.00101317122593718,0.0557244174265451
"152","Joplin, MO",-94.513281,37.0842271,466,"destination",0.0257510729613734,0.221030042918455,0.0858369098712446,0.0643776824034335,0.0236051502145923,0,0.0987124463519313
"153","Juneau, AK",-134.4197221,58.3019444,4429,"destination",0.00880559945811696,0.203657710544141,0.0720252878753669,0.0435764280876044,0.00541883043576428,0.00225784601490178,0.0453827048995259
"154","Kahului, HI",-156.4729469,20.8893351,24609,"destination",0.0025194034702751,0.268804096062416,0.0357592750619692,0.0799301068714698,0.00479499370149132,0.000325084318745175,0.0403917266040879
"155","Kalamazoo, MI",-85.5872286,42.2917069,2341,"destination",0.0226398974797095,0.261426740709099,0.0828705681332764,0.0811618966253738,0.0162323793250748,0,0.0939769329346433
"156","Kalispell, MT",-114.316813,48.1919889,2368,"destination",0.00295608108108108,0.255912162162162,0.0726351351351351,0.0734797297297297,0.00717905405405405,0,0.0625
"157","Kansas City, MO",-94.5785667,39.0997265,48343,"destination",0.0121630846244544,0.385122975404919,0.0670417640609809,0.105868481476119,0.00765364168545601,0.000517137951720001,0.106716587716939
"158","Ketchikan, AK",-131.6461112,55.3422222,2426,"destination",0.00577081615828524,0.240725474031327,0.111706512778236,0.0684253915910965,0.00494641384995878,0.00206100577081616,0.0424567188788129
"159","Key West, FL",-81.7799871,24.5550593,2818,"destination",0.0294535131298793,0.209368346344925,0.0660042583392477,0.0706174591909155,0.00958126330731015,0,0.0443577004968062
"160","Killeen, TX",-97.7277959,31.1171194,1865,"destination",0.0316353887399464,0.253619302949062,0.0766756032171582,0.0991957104557641,0.0101876675603217,0,0.0675603217158177
"161","King Salmon, AK",-156.661351,58.6883251,63,"destination",0,0.253968253968254,0.0317460317460317,0.0317460317460317,0,0,0.0317460317460317
"162","Knoxville, TN",-83.9207392,35.9606384,9190,"destination",0.0188248095756257,0.301305767138194,0.104243743199129,0.110554951033732,0.0143634385201306,0.000217627856365615,0.100108813928183
"163","Kodiak, AK",-152.4072221,57.79,645,"destination",0.0449612403100775,0.155038759689922,0.075968992248062,0.0527131782945736,0.0263565891472868,0,0.0263565891472868
"164","Kona, HI",-155.9969261,19.639994,13792,"destination",0.00145011600928074,0.264138631090487,0.0343677494199536,0.0698230858468677,0.00529292343387471,0.000362529002320186,0.0432134570765661
"165","Kotzebue, AK",-162.5966666,66.8983333,720,"destination",0.0416666666666667,0.163888888888889,0.0430555555555556,0.0263888888888889,0.00833333333333333,0.00277777777777778,0.0236111111111111
"166","La Crosse, WI",-91.2519017,43.8137751,2096,"destination",0.0157442748091603,0.250954198473282,0.121660305343511,0.0720419847328244,0.0133587786259542,0.000477099236641221,0.110687022900763
"167","Lafayette, LA",-92.0198427,30.2240897,2987,"destination",0.0251088048208905,0.20187479075996,0.0639437562772012,0.0659524606628724,0.0107130900569133,0,0.0575828590559089
"168","Lake Charles, LA",-93.2173758,30.2265949,1283,"destination",0.0374123148869836,0.164458300857366,0.0802805923616524,0.0561184723304754,0.0132501948558067,0,0.0475448168355417
"169","Lansing, MI",-84.5555347,42.732535,2573,"destination",0.0155460551884959,0.237465993004275,0.0719005052467936,0.0676253400699573,0.0124368441507967,0,0.08589195491644
"170","Laramie, WY",-105.5911007,41.3113669,624,"destination",0.0128205128205128,0.198717948717949,0.078525641025641,0.0689102564102564,0.00801282051282051,0,0.0721153846153846
"171","Laredo, TX",-99.4803241,27.5305671,1961,"destination",0.0326364099949006,0.176440591534931,0.0790413054563998,0.0611932687404386,0.0122386537480877,0,0.0535441101478837
"172","Las Vegas, NV",-115.1398296,36.1699412,155120,"destination",0.00778751933986591,0.390800670448685,0.0895500257864879,0.098085353274884,0.00647240845796802,0.000844507478081485,0.10664002062919
"173","Latrobe, PA",-79.3794811,40.3211808,1055,"destination",0.0199052132701422,0.280568720379147,0.135545023696682,0.0663507109004739,0.0132701421800948,0.004739336492891,0.0625592417061611
"174","Lawton/Fort Sill, OK",-98.4184224,34.5938359,947,"destination",0.027455121436114,0.233368532206969,0.0665258711721225,0.108764519535375,0.00844772967265047,0,0.0802534318901795
"175","Lewisburg, WV",-80.4456303,37.8017879,58,"destination",0,0.189655172413793,0.137931034482759,0.0344827586206897,0.0172413793103448,0,0.0344827586206897
"176","Lewiston, ID",-117.001189,46.4004089,759,"destination",0.00131752305665349,0.0856389986824769,0.0223978919631094,0.0263504611330698,0.00527009222661397,0,0.0131752305665349
"177","Lexington, KY",-84.5037164,38.0405837,6359,"destination",0.0201289510929391,0.267652146563925,0.0710803585469413,0.0885359333228495,0.0113225349897783,0.000629029721654348,0.0828746658279604
"178","Liberal, KS",-100.920999,37.0430812,144,"destination",0.00694444444444444,0.243055555555556,0.104166666666667,0.0416666666666667,0.00694444444444444,0,0.111111111111111
"179","Lihue, HI",-159.3711111,21.9811111,13103,"destination",0.00290009921392048,0.261237884453942,0.0274746241318782,0.0802106387850111,0.00526596962527665,0.000610547202930627,0.0429672594062428
"180","Lincoln, NE",-96.7025955,40.813616,2525,"destination",0.0099009900990099,0.246336633663366,0.0918811881188119,0.0855445544554456,0.00752475247524752,0.000396039603960396,0.0756435643564356
"181","Little Rock, AR",-92.2895948,34.7464809,9298,"destination",0.0110776511077651,0.345020434502043,0.0757152075715208,0.105614110561411,0.0140890514089051,0.000430200043020004,0.097978059797806
"182","Long Beach, CA",-118.1937395,33.7700504,17013,"destination",0.00711220831129137,0.375418797390231,0.0818197848703932,0.138423558455299,0.00517251513548463,0.000529007229765473,0.140010580144595
"183","Longview, TX",-94.7404891,32.5007037,223,"destination",0.0582959641255605,0.134529147982063,0.0717488789237668,0.0448430493273543,0.0269058295964126,0,0.0582959641255605
"184","Los Angeles, CA",-118.2436849,34.0522342,216659,"destination",0.0094111022390023,0.363460553219575,0.128326079230496,0.0882308143211221,0.00802182231063561,0.000761565409237558,0.0881200411706876
"185","Louisville, KY",-85.7584557,38.2526647,13470,"destination",0.0179658500371195,0.34981440237565,0.0785449146250928,0.0990348923533779,0.0130660727542687,0.00044543429844098,0.0955456570155902
"186","Lubbock, TX",-101.8551665,33.5778631,4857,"destination",0.014000411776817,0.375128680255302,0.071443277743463,0.106856084002471,0.00741198270537369,0.000205888408482602,0.125180152357422
"187","Lynchburg, VA",-79.1422464,37.4137536,304,"destination",0.0394736842105263,0.342105263157895,0.108552631578947,0.144736842105263,0.0197368421052632,0,0.0921052631578947
"188","Madison, WI",-89.4012302,43.0730517,10003,"destination",0.0141957412776167,0.272718184544637,0.0838748375487354,0.0818754373687894,0.0103968809357193,0,0.0867739678096571
"189","Mammoth Lakes, CA",-118.972079,37.648546,104,"destination",0.125,0.413461538461538,0.105769230769231,0.105769230769231,0.00961538461538462,0,0.173076923076923
"190","Manchester, NH",-71.4547891,42.9956397,7737,"destination",0.0324415147990177,0.389685924777045,0.0594545689543751,0.109473956313817,0.00736719658782474,0,0.120201628538193
"191","Manhattan/Ft. Riley, KS",-96.5716694,39.1836082,1436,"destination",0.0146239554317549,0.271587743732591,0.115598885793872,0.100974930362117,0.020891364902507,0,0.114206128133705
"192","Marquette, MI",-87.3955954,46.5475825,1010,"destination",0.0346534653465347,0.226732673267327,0.0851485148514852,0.0574257425742574,0.0178217821782178,0,0.0772277227722772
"193","Martha's Vineyard, MA",-70.645473,41.3804981,241,"destination",0.012448132780083,0.336099585062241,0.0829875518672199,0.16597510373444,0.012448132780083,0,0.0954356846473029
"194","Medford, OR",-122.8755949,42.3265152,3855,"destination",0.0111543450064851,0.27029831387808,0.0985732814526589,0.0780804150453956,0.00674448767833982,0,0.105058365758755
"195","Melbourne, FL",-80.6081089,28.0836269,1872,"destination",0.0117521367521368,0.270299145299145,0.0571581196581197,0.0881410256410256,0.0165598290598291,0.00106837606837607,0.0598290598290598
"196","Memphis, TN",-90.0489801,35.1495343,17064,"destination",0.0159399906235349,0.360232067510549,0.0808134083450539,0.109118612283169,0.0135372714486639,0.000410220346929208,0.0962259728082513
"197","Meridian, MS",-88.703656,32.3643098,1087,"destination",0.0248390064397424,0.364305427782889,0.137994480220791,0.114075436982521,0.0110395584176633,0.00183992640294388,0.159153633854646
"198","Miami, FL",-80.1917902,25.7616798,71263,"destination",0.0230835075705485,0.323716374556221,0.0980312364059891,0.0957299019126335,0.0111137616996197,0.0005753336233389,0.0705134501775115
"199","Midland/Odessa, TX",-102.3676431,31.8456816,6386,"destination",0.0175383651738177,0.346226119636705,0.0768869401816474,0.0981835264641403,0.00892577513310366,0.000626370184779205,0.11055433761353
"200","Milwaukee, WI",-87.9064736,43.0389025,30948,"destination",0.0142497091896084,0.362834431950368,0.0770001292490629,0.101945198397312,0.00762569471371333,0.000516996251777175,0.108569212873207
"201","Minneapolis, MN",-93.2650108,44.977753,143219,"destination",0.0114928885133956,0.271556148276416,0.0690760304149589,0.0615072022566838,0.00908399025268994,0.000425921141747952,0.0683359051522494
"202","Minot, ND",-101.2922906,48.2329668,1956,"destination",0.0168711656441718,0.229550102249489,0.0787321063394683,0.0618609406952965,0.00664621676891616,0,0.0669734151329243
"203","Mission/McAllen/Edinburg, TX",-98.3252932,26.2159066,2816,"destination",0.0252130681818182,0.253196022727273,0.0763494318181818,0.09765625,0.0198863636363636,0,0.0735085227272727
"204","Missoula, MT",-113.9940314,46.8721284,2480,"destination",0.00362903225806452,0.254032258064516,0.0838709677419355,0.0717741935483871,0.00645161290322581,0.000403225806451613,0.0616935483870968
"205","Mobile, AL",-88.0398912,30.6953657,4556,"destination",0.0274363476733977,0.245829675153644,0.0798946444249342,0.0783582089552239,0.0129499561018437,0.000219490781387182,0.0818700614574188
"206","Moline, IL",-90.5151342,41.5067003,3656,"destination",0.0158643326039387,0.290481400437637,0.0949124726477024,0.103391684901532,0.0106673960612691,0,0.0990153172866521
"207","Monroe, LA",-92.1193012,32.5093109,2312,"destination",0.0181660899653979,0.22923875432526,0.0631487889273356,0.0756920415224913,0.0069204152249135,0,0.08780276816609
"208","Monterey, CA",-121.8946761,36.6002378,2840,"destination",0.0186619718309859,0.272887323943662,0.108802816901408,0.0672535211267606,0.00246478873239437,0,0.142253521126761
"209","Montgomery, AL",-86.2999689,32.3668052,2228,"destination",0.020197486535009,0.311938958707361,0.107719928186715,0.110861759425494,0.0170556552962298,0.000448833034111311,0.127019748653501
"210","Montrose/Delta, CO",-108.0300893,38.7030605,920,"destination",0.0184782608695652,0.25,0.106521739130435,0.108695652173913,0.00978260869565217,0,0.0673913043478261
"211","Mosinee, WI",-89.7031784,44.7930232,1705,"destination",0.0263929618768328,0.232844574780059,0.0961876832844575,0.0973607038123167,0.012316715542522,0.000586510263929619,0.0809384164222874
"212","Muskegon, MI",-86.2483921,43.2341813,686,"destination",0.0408163265306122,0.23469387755102,0.0670553935860058,0.0962099125364431,0.0145772594752187,0,0.0728862973760933
"213","Myrtle Beach, SC",-78.8866943,33.6890603,7670,"destination",0.023728813559322,0.242503259452412,0.0890482398956975,0.059973924380704,0.0101694915254237,0.00104302477183833,0.0473272490221643
"214","Nantucket, MA",-70.099451,41.2834704,665,"destination",0.0285714285714286,0.329323308270677,0.126315789473684,0.150375939849624,0.0406015037593985,0.00150375939849624,0.106766917293233
"215","Nashville, TN",-86.7816016,36.1626638,61076,"destination",0.0126236164778309,0.384373567358701,0.0721887484445609,0.107489030060908,0.00833387910144738,0.00057305651974589,0.109077215272775
"216","New Bern/Morehead/Beaufort, NC",-76.7239774,34.6988297,823,"destination",0.0267314702308627,0.321992709599028,0.109356014580802,0.123936816524909,0.0121506682867558,0.00121506682867558,0.11543134872418
"217","New Haven, CT",-72.9278835,41.308274,344,"destination",0.122093023255814,0.337209302325581,0.0959302325581395,0.122093023255814,0.0319767441860465,0.00290697674418605,0.11046511627907
"218","New Orleans, LA",-90.0715323,29.9510658,50903,"destination",0.0157751016639491,0.373317879103393,0.09241105632281,0.110877551421331,0.00948863524743139,0.000432194566135591,0.100819205154902
"219","New York, NY",-74.0059728,40.7127753,218827,"destination",0.0361975441787348,0.377576807249562,0.148880165610277,0.0948511838118696,0.0107664959077262,0.000722031559176884,0.103392177382133
"220","Newark, NJ",-74.1723667,40.735657,123910,"destination",0.0313856831571302,0.406528932289565,0.225058510209023,0.0726656444193366,0.00974901137922686,0.000290533451698814,0.0918731337260915
"221","Newburgh/Poughkeepsie, NY",-73.7477857,41.6230989,1515,"destination",0.0264026402640264,0.383498349834983,0.124752475247525,0.15973597359736,0.0165016501650165,0.00066006600660066,0.128712871287129
"222","Newport News/Williamsburg, VA",-76.492778,37.131667,1663,"destination",0.0246542393265183,0.319903788334336,0.0667468430547204,0.11665664461816,0.0150330727600722,0.000601322910402886,0.0853878532772099
"223","Niagara Falls, NY",-79.0377388,43.0962143,606,"destination",0.0346534653465347,0.267326732673267,0.0874587458745875,0.0610561056105611,0.0115511551155116,0.00495049504950495,0.0511551155115512
"224","Nome, AK",-165.4063889,64.5011111,718,"destination",0.0445682451253482,0.185236768802228,0.0682451253481894,0.0417827298050139,0.0139275766016713,0.00139275766016713,0.032033426183844
"225","Norfolk, VA",-76.2858726,36.8507689,14663,"destination",0.0318488713087363,0.349928391188706,0.0753597490281661,0.107004023733206,0.0137761713155562,0.000136397735797586,0.0967741935483871
"226","North Bend/Coos Bay, OR",-124.2242803,43.4065012,327,"destination",0.0397553516819572,0.474006116207951,0.155963302752294,0.0917431192660551,0.0152905198776758,0,0.284403669724771
"227","North Platte, NE",-100.7601454,41.1402759,152,"destination",0.0131578947368421,0.197368421052632,0.0789473684210526,0.0657894736842105,0.0131578947368421,0,0.0723684210526316
"228","Oakland, CA",-122.2711137,37.8043637,51196,"destination",0.0116220017188843,0.459821079771857,0.0702007969372607,0.118290491444644,0.00296898195171498,0.000546917727947496,0.13583092429096
"229","Ogden, UT",-111.9738304,41.223,55,"destination",0.0181818181818182,0.0727272727272727,0.0363636363636364,0.0363636363636364,0,0,0.0181818181818182
"230","Ogdensburg, NY",-75.4863364,44.6942291,68,"destination",0.0588235294117647,0.205882352941176,0.0735294117647059,0.0441176470588235,0.0441176470588235,0,0
"231","Oklahoma City, OK",-97.5164276,35.4675602,17168,"destination",0.00990214352283318,0.371330382106244,0.0762465051258155,0.109622553588071,0.00920316868592731,0.000291239515377446,0.104496738117428
"232","Omaha, NE",-95.9345034,41.2565369,20867,"destination",0.0106867302439258,0.3608568553218,0.0723630612929506,0.10193127905305,0.010111659558154,0.000287535342885896,0.10662768965352
"233","Ontario, CA",-117.6508876,34.0633443,21106,"destination",0.00762816260778925,0.408130389462712,0.0682744243343125,0.117217852743296,0.00369563157396001,0.000852838055529233,0.1324267980669
"234","Orlando, FL",-81.3792365,28.5383355,129171,"destination",0.0194238644897074,0.372490729343274,0.105209373621014,0.114421967779145,0.00900356891252681,0.000750942549024162,0.100548884811606
"235","Owensboro, KY",-87.1111676,37.7719074,37,"destination",0.0810810810810811,0.405405405405405,0.0540540540540541,0.135135135135135,0,0,0.243243243243243
"236","Paducah, KY",-88.6000478,37.0833893,688,"destination",0.0319767441860465,0.277616279069767,0.0944767441860465,0.0799418604651163,0.00581395348837209,0,0.100290697674419
"237","Palm Springs, CA",-116.5452921,33.8302961,9600,"destination",0.00666666666666667,0.270625,0.099375,0.071875,0.00583333333333333,0.000104166666666667,0.0892708333333333
"238","Panama City, FL",-85.6602058,30.1588129,4512,"destination",0.0166223404255319,0.365248226950355,0.0596187943262411,0.0988475177304965,0.0132978723404255,0.000221631205673759,0.0888741134751773
"239","Pasco/Kennewick/Richland, WA",-119.119948,46.2086683,3802,"destination",0.0131509731720147,0.275381378221988,0.0889005786428196,0.0707522356654392,0.00552340873224619,0,0.101262493424513
"240","Pellston, MI",-84.7839364,45.552789,1026,"destination",0.0321637426900585,0.229044834307992,0.0682261208576998,0.0633528265107212,0.0175438596491228,0.00682261208576998,0.0516569200779727
"241","Pensacola, FL",-87.2169149,30.421309,6875,"destination",0.0164363636363636,0.315781818181818,0.0609454545454545,0.0910545454545455,0.0145454545454545,0.000581818181818182,0.0794181818181818
"242","Peoria, IL",-89.5889864,40.6936488,3654,"destination",0.016967706622879,0.283251231527094,0.106458675424193,0.0911330049261084,0.0161466885604817,0.000273672687465791,0.117131910235359
"243","Petersburg, AK",-132.9555556,56.8125,726,"destination",0.0137741046831956,0.268595041322314,0.101928374655647,0.0523415977961433,0.0110192837465565,0.00275482093663912,0.0964187327823691
"244","Philadelphia, PA",-75.1652215,39.9525839,85062,"destination",0.0262984646493146,0.319813782887776,0.106016787754814,0.0811055465425219,0.0105217370858903,0.000576050410288966,0.0794126637041217
"245","Phoenix, AZ",-112.0740373,33.4483771,162306,"destination",0.00805269059677399,0.380491170997991,0.100125688514288,0.0931142410015649,0.00547114709252893,0.000659248579843013,0.0974702105898734
"246","Pittsburgh, PA",-79.9958864,40.4406248,35197,"destination",0.0170469074068813,0.345143051964656,0.0711424269113845,0.109895729749695,0.00960309117254311,0.00053981873455124,0.0998664658919794
"247","Plattsburgh, NY",-73.4529124,44.6994873,561,"destination",0.0142602495543672,0.283422459893048,0.0926916221033868,0.0802139037433155,0.0053475935828877,0.0017825311942959,0.0374331550802139
"248","Pocatello, ID",-112.4506191,42.8621042,1068,"destination",0.00280898876404494,0.145131086142322,0.0711610486891386,0.0383895131086142,0.00655430711610487,0,0.0337078651685393
"249","Portland, ME",-70.2568189,43.6590993,7327,"destination",0.0427187116145762,0.337791729220691,0.0851644602156408,0.125972430735635,0.00846185341886174,0.000545926027023338,0.11368909512761
"250","Portland, OR",-122.6587185,45.5122308,63678,"destination",0.00590470806243915,0.323298470429348,0.0835767455008009,0.0844247620842363,0.0050723954898081,0.000816608561826691,0.0893872294984139
"251","Portsmouth, NH",-70.7625532,43.0717552,115,"destination",0.0173913043478261,0.356521739130435,0.121739130434783,0.130434782608696,0.00869565217391304,0.00869565217391304,0.130434782608696
"252","Providence, RI",-71.4128343,41.8239891,15392,"destination",0.0283913721413721,0.379093035343035,0.072700103950104,0.109732328482328,0.00903066528066528,0.000324844074844075,0.109862266112266
"253","Provo, UT",-111.6585337,40.2338438,169,"destination",0.0236686390532544,0.272189349112426,0.100591715976331,0.112426035502959,0,0.00591715976331361,0.0887573964497041
"254","Pueblo, CO",-104.6091409,38.2544472,329,"destination",0.0060790273556231,0.21580547112462,0.0759878419452888,0.0699088145896656,0.0151975683890578,0,0.0759878419452888
"255","Punta Gorda, FL",-82.0453664,26.9297836,1980,"destination",0.00555555555555556,0.412626262626263,0.145454545454545,0.112626262626263,0.0136363636363636,0.00151515151515152,0.156565656565657
"256","Quincy, IL",-91.4098726,39.9356016,385,"destination",0.0571428571428571,0.27012987012987,0.153246753246753,0.103896103896104,0.00779220779220779,0,0.0987012987012987
"257","Raleigh/Durham, NC",-78.8636402,35.8991678,43550,"destination",0.0181400688863375,0.360918484500574,0.0884500574052813,0.119035591274397,0.0107462686567164,0.000482204362801378,0.101676234213548
"258","Rapid City, SD",-103.2310149,44.0805434,3546,"destination",0.0115623237450649,0.238296672306825,0.0705019740552735,0.0705019740552735,0.00930626057529611,0.000282007896221094,0.0736040609137056
"259","Redding, CA",-122.3916754,40.5865396,1065,"destination",0.0253521126760563,0.267605633802817,0.0854460093896714,0.0826291079812207,0.0028169014084507,0,0.127699530516432
"260","Reno, NV",-119.8138027,39.5296329,16593,"destination",0.00560477309708913,0.400650876875791,0.0831073344181281,0.116012776472006,0.00542397396492497,0.000542397396492497,0.126800458024468
"261","Rhinelander, WI",-89.4120753,45.6366228,726,"destination",0.0261707988980716,0.18595041322314,0.0371900826446281,0.0275482093663912,0.00826446280991736,0,0.0413223140495868
"262","Richmond, VA",-77.4360481,37.5407246,18166,"destination",0.0230650666079489,0.351866123527469,0.0924804579984587,0.129472641197842,0.0122206319497963,0.000550478916657492,0.111857315864802
"263","Roanoke, VA",-79.9414266,37.2709704,1765,"destination",0.0215297450424929,0.329745042492918,0.0951841359773371,0.112747875354108,0.0186968838526912,0,0.0946175637393768
"264","Rochester, MN",-92.4801989,44.0121221,3116,"destination",0.0234274711168164,0.302952503209243,0.111360718870347,0.0965982028241335,0.00930680359435173,0,0.122272143774069
"265","Rochester, NY",-77.6088465,43.1565779,9690,"destination",0.0307533539731682,0.331062951496388,0.0762641898864809,0.117956656346749,0.0114551083591331,0.000206398348813209,0.0996904024767802
"266","Rock Springs, WY",-109.2029043,41.5874644,673,"destination",0.00891530460624071,0.190193164933135,0.050520059435364,0.0549777117384844,0,0,0.0802377414561664
"267","Rockford, IL",-89.0939952,42.2711311,258,"destination",0,0.224806201550388,0.0542635658914729,0.0658914728682171,0,0.00387596899224806,0.0542635658914729
"268","Roswell, NM",-104.5230242,33.3942655,715,"destination",0.013986013986014,0.167832167832168,0.0447552447552448,0.0503496503496504,0.0111888111888112,0.0013986013986014,0.0503496503496504
"269","Sacramento, CA",-121.4943996,38.5815719,45836,"destination",0.00634872152892923,0.405816388864648,0.0670870058469325,0.108408238066149,0.00497425604328475,0.000698141199057509,0.127432585740466
"270","Saginaw/Bay City/Midland, MI",-84.081498,43.538647,2715,"destination",0.0147329650092081,0.228729281767956,0.0662983425414365,0.0703499079189687,0.0106813996316759,0,0.079926335174954
"271","Salina, KS",-97.6114237,38.8402805,57,"destination",0,0.263157894736842,0.157894736842105,0.105263157894737,0,0,0.12280701754386
"272","Salt Lake City, UT",-111.8910474,40.7607793,112296,"destination",0.00374902044596424,0.277507658331552,0.0602870983828453,0.0652204887084135,0.00619790553537081,0.000516492127947567,0.0745262520481584
"273","San Angelo, TX",-100.4370375,31.4637723,1074,"destination",0.0148975791433892,0.208566108007449,0.0716945996275605,0.0735567970204842,0.00837988826815642,0,0.0856610800744879
"274","San Antonio, TX",-98.4936282,29.4241219,35326,"destination",0.0110683349374398,0.400696370944913,0.0755817245088603,0.114335050670894,0.0102474098397781,0.000396308667836721,0.113542433335221
"275","San Diego, CA",-117.1610838,32.715738,86860,"destination",0.00910660833525213,0.378827999078978,0.0838821091411467,0.0991480543403178,0.00622841353902832,0.000644715634354133,0.101772967994474
"276","San Francisco, CA",-122.4194155,37.7749295,177687,"destination",0.0144186125040099,0.372199429333603,0.17323158137624,0.0718341803283302,0.00996696438118714,0.000529020130904343,0.102280977223995
"277","San Jose, CA",-121.8863286,37.3382082,51163,"destination",0.00730997009557688,0.37767527314661,0.0674119969509216,0.101577311729179,0.00371362117154975,0.000547270488438911,0.118405879248676
"278","San Luis Obispo, CA",-120.6596156,35.2827524,3818,"destination",0.0159769512833944,0.258774227344159,0.134363541121006,0.072812991094814,0.00523834468308015,0.000523834468308015,0.127815610267156
"279","Sanford, FL",-81.269453,28.8028612,3311,"destination",0.00755058894593778,0.450317124735729,0.139232860163093,0.134098459679855,0.0226517668378134,0.0027182120205376,0.193295077016007
"280","Santa Ana, CA",-117.867653,33.7454725,41959,"destination",0.00722133511284826,0.353916918897019,0.0679949474486999,0.0930432088467313,0.00555303987225625,0.000476655783026288,0.0937105269429681
"281","Santa Barbara, CA",-119.6981901,34.4208305,5830,"destination",0.0192109777015437,0.25557461406518,0.0936535162950257,0.0694682675814751,0.00600343053173242,0.000171526586620926,0.113550600343053
"282","Santa Fe, NM",-105.937799,35.6869752,1457,"destination",0.00480439258750858,0.218943033630748,0.0549073438572409,0.0954015099519561,0.000686341798215511,0,0.0658888126286891
"283","Santa Maria, CA",-120.4357191,34.9530337,52,"destination",0,0.153846153846154,0,0.0192307692307692,0,0,0.0192307692307692
"284","Santa Rosa, CA",-122.7140548,38.440429,1484,"destination",0.0498652291105121,0.278301886792453,0.113207547169811,0.0721024258760108,0.00606469002695418,0,0.133423180592992
"285","Sarasota/Bradenton, FL",-82.5306527,27.3364347,3923,"destination",0.0178434871271986,0.312770838643895,0.0780015294417538,0.0943155748151925,0.0145296966607188,0,0.0565893448891155
"286","Sault Ste. Marie, MI",-84.3475876,46.4977115,676,"destination",0.0177514792899408,0.248520710059172,0.0636094674556213,0.0739644970414201,0.00739644970414201,0,0.0784023668639053
"287","Savannah, GA",-81.091203,32.0808989,9943,"destination",0.0280599416675048,0.298501458312381,0.0726138992255858,0.093834858694559,0.0142814040028161,0.000502866338127326,0.07784370914211
"288","Scottsbluff, NE",-103.6671662,41.8666341,156,"destination",0.0128205128205128,0.217948717948718,0.0897435897435897,0.0833333333333333,0.0256410256410256,0,0.0897435897435897
"289","Scranton/Wilkes-Barre, PA",-75.9927652,41.2981769,2408,"destination",0.0236710963455149,0.310215946843854,0.0759966777408638,0.0930232558139535,0.0141196013289037,0.000415282392026578,0.105897009966777
"290","Seattle, WA",-122.3320708,47.6062095,139124,"destination",0.00621747505822144,0.305871021534746,0.111734855237055,0.0685862971162416,0.00766941721054599,0.000934418216842529,0.0717705068859435
"291","Shreveport, LA",-93.7501789,32.5251516,5282,"destination",0.0187429004165089,0.244982960999621,0.067777357061719,0.0918212798182507,0.00624763347216963,0,0.0814085573646346
"292","Sioux City, IA",-96.4049408,42.4963416,397,"destination",0.0453400503778338,0.287153652392947,0.141057934508816,0.103274559193955,0.0302267002518892,0,0.100755667506297
"293","Sioux Falls, SD",-96.7311034,43.5445959,4987,"destination",0.0142370162422298,0.279326248245438,0.0916382594746341,0.0886304391417686,0.0156406657309003,0.000401042711048727,0.082213755764989
"294","Sitka, AK",-135.33,57.0530556,1344,"destination",0.0104166666666667,0.209077380952381,0.0691964285714286,0.0476190476190476,0.00297619047619048,0.000744047619047619,0.0535714285714286
"295","South Bend, IN",-86.2519898,41.6763545,5653,"destination",0.0166283389350787,0.275252078542367,0.0870334335750929,0.0767733946577039,0.0125597028126658,0,0.109676278082434
"296","Spokane, WA",-117.4260465,47.6587802,12144,"destination",0.00395256916996047,0.329380764163373,0.0938735177865613,0.0918148880105402,0.00592885375494071,0.000494071146245059,0.0871212121212121
"297","Springfield, IL",-89.6501481,39.7817213,1295,"destination",0.0239382239382239,0.249420849420849,0.0895752895752896,0.0810810810810811,0.0108108108108108,0,0.0996138996138996
"298","Springfield, MO",-93.2922989,37.2089572,4700,"destination",0.0231914893617021,0.244468085106383,0.08,0.0829787234042553,0.014468085106383,0.00127659574468085,0.0640425531914894
"299","St. Augustine, FL",-81.3124341,29.9012437,60,"destination",0,0.55,0.316666666666667,0.3,0,0,0.383333333333333
"300","St. Cloud, MN",-94.1632404,45.5579451,71,"destination",0.0140845070422535,0.267605633802817,0.0563380281690141,0.0704225352112676,0,0,0.028169014084507
"301","St. George, UT",-113.5684164,37.0965278,3031,"destination",0.00131969646981194,0.14582645991422,0.0640052787858792,0.0422302870339822,0.00362916529198284,0,0.0488287693830419
"302","St. Louis, MO",-90.1994042,38.6270025,59344,"destination",0.0119641412779725,0.394159476947964,0.070925451604206,0.10653141008358,0.0067572121865732,0.000539228902669183,0.112884200593152
"303","St. Petersburg, FL",-82.6402915,27.7676008,2561,"destination",0.00624755954705193,0.3248730964467,0.0976181179226864,0.0804373291682936,0.0117141741507224,0.00156188988676298,0.113627489262007
"304","State College, PA",-77.8600012,40.7933949,1493,"destination",0.0113864701942398,0.275284661754856,0.0683188211654387,0.0843938379102478,0.00736771600803751,0.000669792364367046,0.0937709310113865
"305","Staunton, VA",-79.0716958,38.149576,75,"destination",0.0266666666666667,0.186666666666667,0.106666666666667,0.0533333333333333,0.0266666666666667,0,0.12
"306","Stillwater, OK",-97.0583681,36.1156071,228,"destination",0.0263157894736842,0.219298245614035,0.0526315789473684,0.0921052631578947,0.0175438596491228,0,0.0745614035087719
"307","Stockton, CA",-121.2907796,37.9577016,223,"destination",0,0.42152466367713,0.165919282511211,0.152466367713004,0.0179372197309417,0,0.20627802690583
"308","Sun Valley/Hailey/Ketchum, ID",-114.3311763,43.6761518,1282,"destination",0.0109204368174727,0.24414976599064,0.0600624024960998,0.0600624024960998,0.0109204368174727,0,0.047581903276131
"309","Syracuse, NY",-76.1474244,43.0481221,8784,"destination",0.0329007285974499,0.319672131147541,0.0846994535519126,0.126593806921676,0.0116120218579235,0.000341530054644809,0.107695810564663
"310","Tallahassee, FL",-84.2807329,30.4382559,3349,"destination",0.0131382502239474,0.267841146610929,0.0609137055837563,0.0958495073156166,0.0164228127799343,0.000895789787996417,0.0665870409077337
"311","Tampa, FL",-82.4571776,27.950575,70940,"destination",0.0185931773329574,0.374795601917113,0.0977445728784889,0.1126867775585,0.00955737242740344,0.000676628136453341,0.0993092754440372
"312","Texarkana, AR",-94.0376881,33.4417915,328,"destination",0.0487804878048781,0.179878048780488,0.0487804878048781,0.0701219512195122,0.0182926829268293,0,0.0518292682926829
"313","Toledo, OH",-83.5378674,41.6528052,943,"destination",0.0254506892895016,0.341463414634146,0.11983032873807,0.111346765641569,0.0180275715800636,0,0.134676564156946
"314","Traverse City, MI",-85.6206317,44.7630567,3268,"destination",0.0217258261933905,0.287943696450428,0.104957160342717,0.0970012239902081,0.0149938800489596,0.000305997552019584,0.110771113831089
"315","Trenton, NJ",-74.759717,40.2205824,2152,"destination",0.0278810408921933,0.410315985130112,0.113847583643123,0.110130111524164,0.00604089219330855,0,0.152416356877323
"316","Tucson, AZ",-110.9747108,32.2226066,15954,"destination",0.0043876143913752,0.371881659771844,0.0912623793406042,0.110505202457064,0.00752162467092892,0.000564121850319669,0.120220634323681
"317","Tulsa, OK",-95.992775,36.1539816,14781,"destination",0.0126513767674718,0.357485961707598,0.0767201136594276,0.109870780055477,0.00940396454908328,0.000202963263649279,0.106488058994655
"318","Twin Falls, ID",-114.4700518,42.5558381,1087,"destination",0.00735970561177553,0.142594296228151,0.0717571297148114,0.0478380864765409,0.00735970561177553,0,0.0367985280588776
"319","Tyler, TX",-95.3010624,32.3512601,478,"destination",0.0543933054393305,0.213389121338912,0.0648535564853557,0.0774058577405858,0.0292887029288703,0,0.0794979079497908
"320","Valdosta, GA",-83.2784851,30.8327022,667,"destination",0.00749625187406297,0.247376311844078,0.0914542728635682,0.101949025487256,0.00599700149925037,0,0.0839580209895052
"321","Valparaiso, FL",-86.5027282,30.5085309,4646,"destination",0.0163581575548859,0.278949634093844,0.071459319845028,0.087602238484718,0.0195867412828239,0.000215238915195867,0.0703831252690486
"322","Waco, TX",-97.1466695,31.549333,469,"destination",0.0298507462686567,0.228144989339019,0.0874200426439232,0.0788912579957356,0.023454157782516,0,0.0916844349680171
"323","Washington, DC",-77.0368707,38.9071923,138477,"destination",0.0230796449951978,0.312889505116373,0.0840428374387082,0.0882095943730728,0.0113159586068445,0.000534384771478296,0.0874730099583324
"324","Waterloo, IA",-92.3425775,42.492786,646,"destination",0.0185758513931889,0.275541795665635,0.126934984520124,0.0758513931888545,0.0201238390092879,0,0.125386996904025
"325","West Palm Beach/Palm Beach, FL",-80.0533746,26.7153424,24666,"destination",0.0245276899375659,0.380361631395443,0.120205951512203,0.145098516176113,0.0111894916078813,0.000810832725208789,0.10702991972756
"326","West Yellowstone, MT",-111.1041092,44.6621493,232,"destination",0.00862068965517241,0.137931034482759,0.133620689655172,0.0732758620689655,0.00862068965517241,0,0.0258620689655172
"327","White Plains, NY",-73.7629097,41.0339862,7688,"destination",0.0343392299687825,0.402965660770031,0.0979448491155047,0.187565036420395,0.0117065556711759,0.00117065556711759,0.141129032258065
"328","Wichita Falls, TX",-98.4933873,33.9137085,355,"destination",0.0507042253521127,0.211267605633803,0.0394366197183099,0.0591549295774648,0.0140845070422535,0,0.0591549295774648
"329","Wichita, KS",-97.330053,37.6871761,8712,"destination",0.0111340679522498,0.315541781450872,0.0806932966023875,0.0893021120293848,0.01044536271809,0.000114784205693297,0.0999770431588613
"330","Williston, ND",-103.6179745,48.1469683,1327,"destination",0.00678221552373775,0.186134137151469,0.0813865862848531,0.0497362471740769,0.0113036925395629,0,0.0587792012057272
"331","Wilmington, NC",-77.9447102,34.2257255,3294,"destination",0.0248937462052216,0.293564055859138,0.100789313904068,0.103825136612022,0.0182149362477231,0.000607164541590771,0.0983606557377049
"332","Worcester, MA",-71.8022934,42.2625932,730,"destination",0.0410958904109589,0.393150684931507,0.0863013698630137,0.16986301369863,0.0191780821917808,0,0.104109589041096
"333","Wrangell, AK",-132.3766666,56.4708333,726,"destination",0.00964187327823691,0.292011019283747,0.114325068870523,0.0482093663911846,0.0179063360881543,0.00137741046831956,0.103305785123967
"334","Yakutat, AK",-139.7272808,59.5469878,724,"destination",0.0069060773480663,0.215469613259669,0.0842541436464088,0.0248618784530387,0.00414364640883978,0,0.0966850828729282
"335","Youngstown/Warren, OH",-80.8184166,41.2375569,2,"destination",0,1,1,1,0,0,0
"336","Yuma, AZ",-114.6276916,32.6926512,1379,"destination",0.00145032632342277,0.245105148658448,0.0420594633792603,0.0732414793328499,0.00217548948513416,0.00145032632342277,0.0804931109499637
"337","Aberdeen, SD",-98.4864829,45.4646985,728,"origin",0.0137362637362637,0.276098901098901,0.0755494505494505,0.0631868131868132,0.00412087912087912,0.00274725274725275,0.0563186813186813
"338","Abilene, TX",-99.7331439,32.4487364,630,"origin",0.0285714285714286,0.288888888888889,0.0968253968253968,0.112698412698413,0.0285714285714286,0,0.0904761904761905
"339","Adak Island, AK",-176.6217472,51.7615874,103,"origin",0.0776699029126214,0.427184466019417,0.12621359223301,0.058252427184466,0.029126213592233,0.145631067961165,0.029126213592233
"340","Akron, OH",-81.5190053,41.0814447,6180,"origin",0.0216828478964401,0.263268608414239,0.120873786407767,0.0762135922330097,0.0110032362459547,0.000161812297734628,0.0736245954692557
"341","Albany, GA",-84.155741,31.5785074,631,"origin",0.00792393026941363,0.297939778129952,0.147385103011094,0.080824088748019,0.0237717908082409,0,0.109350237717908
"342","Albany, NY",-73.7562317,42.6525793,10548,"origin",0.0176336746302617,0.328877512324611,0.0999241562381494,0.0925293894577171,0.00834281380356466,0.000474023511566174,0.0983124762988244
"343","Albuquerque, NM",-106.650422,35.0843859,20699,"origin",0.00758490748345331,0.355089617855935,0.0647857384414706,0.0789410116430745,0.00386492101067684,0.000338180588434224,0.108362722836852
"344","Alexandria, LA",-92.4451371,31.3112936,1953,"origin",0.0296979006656426,0.17921146953405,0.100870455709165,0.043010752688172,0.0112647209421403,0.000512032770097286,0.0798771121351766
"345","Allentown/Bethlehem/Easton, PA",-75.441415,40.651834,2854,"origin",0.0168185003503854,0.292221443587947,0.10406447091801,0.0658724597056762,0.0108619481429573,0.00140154169586545,0.0956552207428171
"346","Alpena, MI",-83.4327528,45.0616794,623,"origin",0.028892455858748,0.378812199036918,0.0898876404494382,0.0658105939004815,0.0272873194221509,0.0176565008025682,0.0770465489566613
"347","Amarillo, TX",-101.8312969,35.2219971,3692,"origin",0.0216684723726977,0.242686890574215,0.0568797399783315,0.0539003250270856,0.0062296858071506,0.000270855904658722,0.0774647887323944
"348","Anchorage, AK",-149.9002778,61.2180556,17449,"origin",0.00853917129921485,0.187288669837813,0.0614361854547539,0.0433262651154794,0.00275087397558599,0.000229239497965499,0.0308900223508511
"349","Appleton, WI",-88.4153847,44.2619309,3325,"origin",0.0147368421052632,0.221954887218045,0.0670676691729323,0.042406015037594,0.00781954887218045,0,0.078796992481203
"350","Arcata/Eureka, CA",-124.1065825,40.9709197,1204,"origin",0.0365448504983389,0.291528239202658,0.116279069767442,0.01578073089701,0.000830564784053156,0.000830564784053156,0.143687707641196
"351","Asheville, NC",-82.5514869,35.5950581,4587,"origin",0.0180946152169174,0.316328755177676,0.12535426204491,0.0579899716590364,0.00872029649008066,0.000218007412252017,0.133420536298234
"352","Ashland, WV",-81.3526016,37.4084488,130,"origin",0.00769230769230769,0.507692307692308,0.138461538461538,0.276923076923077,0.0230769230769231,0,0.192307692307692
"353","Aspen, CO",-106.8175387,39.1910983,6260,"origin",0.0530351437699681,0.285303514376997,0.111182108626198,0.0541533546325879,0.0193290734824281,0.000319488817891374,0.134185303514377
"354","Atlanta, GA",-84.3879824,33.7489954,366563,"origin",0.0119270084542084,0.357190987633776,0.0731634125648251,0.0897881128209885,0.0160736353641802,0.000231883741676056,0.0700998191306815
"355","Atlantic City, NJ",-74.4229266,39.3642834,3444,"origin",0.0278745644599303,0.200929152148664,0.119918699186992,0.0441347270615563,0.00551684088269454,0.000290360046457607,0.0412311265969803
"356","Augusta, GA",-82.0105148,33.4734978,2796,"origin",0.0121602288984263,0.324749642346209,0.0997854077253219,0.0776108726752504,0.00572246065808298,0,0.125178826895565
"357","Austin, TX",-97.7430608,30.267153,56026,"origin",0.0104594295505658,0.369667654303359,0.0879770106736158,0.0895298611359012,0.00663977439046157,0.000642558811980152,0.0979545211151965
"358","Bakersfield, CA",-119.0187125,35.3732921,2235,"origin",0.00671140939597315,0.206711409395973,0.0733780760626398,0.0371364653243848,0.00134228187919463,0.000447427293064877,0.0782997762863535
"359","Baltimore, MD",-76.6121893,39.2903848,103437,"origin",0.0179529568722991,0.4020901611609,0.0895327590707387,0.108481491149202,0.00705743592718273,0.000551060065547145,0.096619198159266
"360","Bangor, ME",-68.7712257,44.8016128,1894,"origin",0.0696937697993664,0.287222808870116,0.212249208025343,0.0945089757127772,0.013727560718057,0,0.0945089757127772
"361","Barrow, AK",-156.788611,71.2905556,833,"origin",0.0228091236494598,0.160864345738295,0.0540216086434574,0.00600240096038415,0.00600240096038415,0.0192076830732293,0.0516206482593037
"362","Baton Rouge, LA",-91.1871466,30.4514677,6913,"origin",0.0175032547374512,0.245045566324317,0.078547663821785,0.0872269636915955,0.0040503399392449,0,0.0817300737740489
"363","Beaumont/Port Arthur, TX",-94.1265562,30.080174,241,"origin",0.0580912863070539,0.170124481327801,0.128630705394191,0.0663900414937759,0.033195020746888,0,0.0705394190871369
"364","Belleville, IL",-89.9839935,38.5200504,324,"origin",0.00925925925925926,0.425925925925926,0.123456790123457,0.0987654320987654,0.0185185185185185,0,0.169753086419753
"365","Bellingham, WA",-122.4786854,48.7519112,1381,"origin",0.0137581462708182,0.225923244026068,0.110789283128168,0.0427226647356988,0.0108616944243302,0.00434467776973208,0.0680666183924692
"366","Bemidji, MN",-94.8826861,47.471573,727,"origin",0.00687757909215956,0.254470426409904,0.0811554332874828,0.063273727647868,0.00412654745529574,0.00275103163686382,0.0577716643741403
"367","Bend/Redmond, OR",-121.299079,44.1617823,3902,"origin",0.0138390568939006,0.254228600717581,0.10456176319836,0.0361353152229626,0.00563813429010764,0.0017939518195797,0.0968733982573039
"368","Bethel, AK",-161.7558334,60.7922222,919,"origin",0.029379760609358,0.174102285092492,0.0826985854189336,0.0163220892274211,0.00544069640914037,0.0348204570184984,0.0500544069640914
"369","Billings, MT",-108.5006904,45.7832856,3670,"origin",0.00490463215258856,0.153950953678474,0.061307901907357,0.029700272479564,0.00544959128065395,0,0.0607629427792916
"370","Binghamton, NY",-75.9179738,42.0986867,874,"origin",0.0263157894736842,0.24370709382151,0.074370709382151,0.0423340961098398,0.0068649885583524,0,0.097254004576659
"371","Birmingham, AL",-86.80249,33.5206608,13527,"origin",0.017742293191395,0.287351223478968,0.0747394100687514,0.0640940341539144,0.005914097730465,0.000517483551415687,0.092629555703408
"372","Bismarck/Mandan, ND",-100.8895761,46.8266603,2909,"origin",0.0161567548985906,0.216569267789618,0.0773461670677209,0.0405637676177381,0.00756273633551048,0.00240632519766243,0.0924716397387418
"373","Bloomington/Normal, IL",-88.9906312,40.5142026,2537,"origin",0.0177374852187623,0.230193141505715,0.0969649191959007,0.0610957824201813,0.0102483247930627,0.00118249901458415,0.0957824201813165
"374","Boise, ID",-116.2023137,43.6150186,17288,"origin",0.00468533086534012,0.232704766311893,0.0636857936140676,0.048588616381305,0.00549514113836187,5.78435909301249e-05,0.0684289680703378
"375","Boston, MA",-71.0588801,42.3600825,131539,"origin",0.0281665513649944,0.362500855259657,0.13077490326063,0.120200092748158,0.0115555082523054,0.000859060810862178,0.107055702111161
"376","Bozeman, MT",-111.0429339,45.6769979,5555,"origin",0.00612061206120612,0.258865886588659,0.0862286228622862,0.0529252925292529,0.0102610261026103,0,0.0793879387938794
"377","Brainerd, MN",-94.2020084,46.3526733,637,"origin",0.0156985871271586,0.229199372056515,0.105180533751962,0.0580847723704867,0.00627943485086342,0.00313971742543171,0.0612244897959184
"378","Bristol/Johnson City/Kingsport, TN",-82.1888089,36.595141,2052,"origin",0.00974658869395711,0.237329434697856,0.0618908382066277,0.0565302144249513,0.00487329434697856,0.000487329434697856,0.091130604288499
"379","Brownsville, TX",-97.4974838,25.9017472,1434,"origin",0.0320781032078103,0.129009762900976,0.0536959553695955,0.0223152022315202,0.0111576011157601,0.000697350069735007,0.0557880055788006
"380","Brunswick, GA",-81.4914894,31.1499528,695,"origin",0.0129496402877698,0.228776978417266,0.0992805755395683,0.0633093525179856,0,0.00143884892086331,0.0834532374100719
"381","Buffalo, NY",-78.8783689,42.8864468,20374,"origin",0.0276823402375577,0.318150584077746,0.111612839893983,0.0802493373907922,0.00878570727397664,4.90821635417689e-05,0.107195445175223
"382","Bullhead City, AZ",-114.5285981,35.1359386,290,"origin",0,0.362068965517241,0.172413793103448,0.0275862068965517,0,0,0.172413793103448
"383","Burbank, CA",-118.3089661,34.1808392,26043,"origin",0.0162039703567177,0.40609760780248,0.0883154782475137,0.0861651883423569,0.0028414545175287,0.000153592136082633,0.140152824175402
"384","Burlington, VT",-73.212072,44.4758825,5036,"origin",0.0524225575853852,0.311159650516283,0.155480540111199,0.0833995234312947,0.0119142176330421,0.000198570293884035,0.0961080222398729
"385","Butte, MT",-112.5347775,46.0038232,675,"origin",0.0148148148148148,0.142222222222222,0.0503703703703704,0.0133333333333333,0.0118518518518519,0,0.0562962962962963
"386","Cape Girardeau, MO",-89.5181476,37.3058839,255,"origin",0.0509803921568627,0.262745098039216,0.137254901960784,0.0901960784313725,0.00392156862745098,0,0.0745098039215686
"387","Casper, WY",-106.3251749,42.8500769,811,"origin",0.00123304562268804,0.1134401972873,0.0431565967940814,0.0135635018495684,0.00123304562268804,0,0.0431565967940814
"388","Cedar City, UT",-113.0618931,37.6774769,623,"origin",0.00160513643659711,0.26645264847512,0.0995184590690209,0.0176565008025682,0.00160513643659711,0,0.128410914927769
"389","Cedar Rapids/Iowa City, IA",-104.990251,41.9778795,6878,"origin",0.0152660657167781,0.270718232044199,0.0972666472811864,0.0526315789473684,0.0145391102064554,0.000581564408258215,0.100465251526607
"390","Champaign/Urbana, IL",-88.2433829,40.1164204,762,"origin",0.0459317585301837,0.211286089238845,0.111548556430446,0.0459317585301837,0.0275590551181102,0,0.0800524934383202
"391","Charleston, SC",-79.9310512,32.7764749,16759,"origin",0.0319231457724208,0.285637567873978,0.0828211707142431,0.0699922429739245,0.00358016588101915,0.000596694313503192,0.0915329076913897
"392","Charleston/Dunbar, WV",-81.7373485,38.3606509,2789,"origin",0.0319110792398709,0.287916816063105,0.108999641448548,0.0645392613840086,0.0136249551810685,0,0.105414126927214
"393","Charlotte, NC",-80.8431267,35.2270869,149870,"origin",0.016360846066591,0.340568492693668,0.112250617201575,0.106285447387736,0.0121038233135384,0.00179488890371655,0.0916194034830186
"394","Charlottesville, VA",-78.4766781,38.0293059,3270,"origin",0.0333333333333333,0.31743119266055,0.113149847094801,0.0853211009174312,0.00886850152905199,0.00214067278287462,0.123241590214067
"395","Chattanooga, TN",-85.3096801,35.0456297,4884,"origin",0.0188370188370188,0.288902538902539,0.116707616707617,0.0663390663390663,0.00614250614250614,0,0.108927108927109
"396","Chicago, IL",-87.6297982,41.8781136,375211,"origin",0.0175447947954618,0.369498762029898,0.108328380564536,0.103240576635546,0.0176940441511576,0.00024786053713777,0.10179339091871
"397","Cincinnati, OH",-84.5120196,39.1031182,29328,"origin",0.0169462629569013,0.284779050736498,0.115896072013093,0.064443535188216,0.0126500272776869,0.000238679759956356,0.0813557010365521
"398","Clarksburg/Fairmont, WV",-80.1425781,39.4850848,373,"origin",0.032171581769437,0.268096514745308,0.150134048257373,0.123324396782842,0.0134048257372654,0,0.0428954423592493
"399","Cleveland, OH",-81.6943605,41.49932,40705,"origin",0.017418007615772,0.277754575604963,0.104851983785776,0.0754207099864881,0.00452032919788724,0.000835278221348729,0.0764279572534087
"400","Cody, WY",-109.0565308,44.5263422,991,"origin",0.012108980827447,0.169525731584258,0.0716448032290616,0.0221997981836529,0.0070635721493441,0.00201816347124117,0.0575176589303734
"401","College Station/Bryan, TX",-96.3344068,30.627977,1650,"origin",0.0266666666666667,0.162424242424242,0.0539393939393939,0.0387878787878788,0.00666666666666667,0,0.063030303030303
"402","Colorado Springs, CO",-104.8213634,38.8338816,9707,"origin",0.0109199546718863,0.242814463789018,0.0897290615020089,0.0675800968373339,0.00875656742556918,0.000103018440300814,0.064180488307407
"403","Columbia, MO",-92.3340724,38.9517053,1338,"origin",0.0291479820627803,0.198804185351271,0.138266068759342,0.0582959641255605,0.00896860986547085,0.000747384155455904,0.0687593423019432
"404","Columbia, SC",-81.0348144,34.0007104,4391,"origin",0.0161694374857663,0.217262582555227,0.0680938282851287,0.0553404691414256,0.00569346390343885,0,0.0687770439535413
"405","Columbus, GA",-84.9877094,32.4609764,849,"origin",0.00824499411071849,0.273262661955241,0.104829210836278,0.0765606595995289,0.00353356890459364,0,0.127208480565371
"406","Columbus, MS",-88.4272627,33.4956744,957,"origin",0.0114942528735632,0.212121212121212,0.0877742946708464,0.0397074190177638,0.00731452455590387,0,0.101358411703239
"407","Columbus, OH",-82.9987942,39.9611755,30986,"origin",0.0176208610340154,0.320273671980895,0.0989156393209837,0.0790356935390176,0.00816497773187891,9.68179177693152e-05,0.0941070160717744
"408","CONCORD, NC",-80.579511,35.4087517,292,"origin",0.0102739726027397,0.366438356164384,0.147260273972603,0.0376712328767123,0,0.00342465753424658,0.167808219178082
"409","Cordova, AK",-145.7525414,60.5424087,724,"origin",0.0110497237569061,0.197513812154696,0.0911602209944751,0.0151933701657459,0.00414364640883978,0.0124309392265193,0.0897790055248619
"410","Corpus Christi, TX",-97.396381,27.8005828,3585,"origin",0.0384937238493724,0.237935843793584,0.0853556485355648,0.0437935843793584,0.00864714086471409,0,0.097907949790795
"411","Dallas, TX",-96.7969879,32.7766642,70155,"origin",0.0145534887035849,0.554828593827952,0.0998503314090229,0.156496329555983,0.00945050245884114,0.0012543653339035,0.161813128073551
"412","Dallas/Fort Worth, TX",-97.0403352,32.8998091,210467,"origin",0.0136363420393696,0.342153401720935,0.101607377878717,0.11256396489711,0.0156176502729644,0.000256572289242494,0.087571923389415
"413","Dayton, OH",-84.1916069,39.7589478,8333,"origin",0.0253210128405136,0.281771270850834,0.111484459378375,0.0720028801152046,0.00864034561382455,0,0.107764310572423
"414","Daytona Beach, FL",-81.0228331,29.2108147,2515,"origin",0.015506958250497,0.261232604373757,0.0664015904572565,0.0679920477137177,0.00874751491053678,0,0.0910536779324056
"415","Deadhorse, AK",-148.4597191,70.2001996,763,"origin",0.0196592398427261,0.133682830930537,0.0314547837483617,0.0104849279161206,0.0117955439056356,0,0.0393184796854522
"416","Denver, CO",-104.990251,39.7392358,226778,"origin",0.00583830883066259,0.363774263817478,0.0983561015618799,0.0914374410216159,0.00737284921817813,0.000216070341920292,0.0900881037843177
"417","Des Moines, IA",-93.6091064,41.6005448,10464,"origin",0.0131880733944954,0.261372324159021,0.0948967889908257,0.0603975535168196,0.0126146788990826,0.00095565749235474,0.0794151376146789
"418","Detroit, MI",-83.0457538,42.331427,137387,"origin",0.011325671278942,0.284582966365086,0.094899808569952,0.0792869776616419,0.00959333852547912,0.000283869652878365,0.0649915930910494
"419","Devils Lake, ND",-98.8651202,48.112779,624,"origin",0.0336538461538462,0.1875,0.046474358974359,0.0288461538461538,0.00641025641025641,0.0016025641025641,0.0496794871794872
"420","Dillingham, AK",-158.4575,59.0397222,84,"origin",0,0.238095238095238,0.0714285714285714,0.0357142857142857,0,0.0476190476190476,0.0238095238095238
"421","Dothan, AL",-85.3904888,31.2232313,1293,"origin",0.0139211136890951,0.277648878576953,0.133797370456303,0.0680587780355762,0.0100541376643465,0,0.129930394431555
"422","Dubuque, IA",-90.6645718,42.5005583,343,"origin",0.0641399416909621,0.201166180758017,0.134110787172012,0.032069970845481,0.0291545189504373,0,0.0845481049562682
"423","Duluth, MN",-92.1004852,46.7866719,2724,"origin",0.0363436123348018,0.210352422907489,0.0866372980910426,0.0301027900146843,0.00734214390602056,0,0.0914096916299559
"424","Durango, CO",-107.8800667,37.27528,1926,"origin",0.0145379023883697,0.198857736240914,0.073208722741433,0.0316718587746625,0.00934579439252336,0,0.0877466251298027
"425","Eagle, CO",-106.8286507,39.6552634,1795,"origin",0.0217270194986072,0.310306406685237,0.105849582172702,0.0690807799442897,0.0161559888579387,0,0.11866295264624
"426","Eau Claire, WI",-91.4984941,44.811349,687,"origin",0.0305676855895196,0.200873362445415,0.0829694323144105,0.0422125181950509,0,0,0.0684133915574964
"427","El Paso, TX",-106.4850217,31.7618778,12394,"origin",0.012021946102953,0.352832015491367,0.0646280458286268,0.0831047280942391,0.00540584153622721,0.000403421010166209,0.109972567371309
"428","Elko, NV",-115.7631232,40.8324211,660,"origin",0.00454545454545455,0.15,0.053030303030303,0.0106060606060606,0.00606060606060606,0.00303030303030303,0.0439393939393939
"429","Elmira/Corning, NY",-76.893638,42.15987,288,"origin",0,0.336805555555556,0.0729166666666667,0.0868055555555556,0.0104166666666667,0,0.118055555555556
"430","Erie, PA",-80.085059,42.1292241,1369,"origin",0.0153396639883126,0.212563915266618,0.0679327976625274,0.0284879474068663,0.00511322132943755,0,0.097881665449233
"431","Escanaba, MI",-87.0645801,45.7452466,625,"origin",0.0208,0.3088,0.0848,0.032,0.0096,0.0016,0.1408
"432","Eugene, OR",-123.0867536,44.0520691,4149,"origin",0.00289226319595083,0.270667630754399,0.116172571704025,0.0462762111352133,0.00674861412388527,0.000241021932995903,0.0903832248734635
"433","Evansville, IN",-87.5710898,37.9715592,2682,"origin",0.0201342281879195,0.213646532438479,0.0894854586129754,0.058165548098434,0.0119313944817301,0,0.0645041014168531
"434","Fairbanks, AK",-147.7163888,64.8377778,3603,"origin",0.00555092978073827,0.169580904801554,0.0549542048293089,0.0394116014432417,0.00222037191229531,0.00222037191229531,0.0285872883708021
"435","Fargo, ND",-96.7898034,46.8771863,4141,"origin",0.015938179183772,0.220236657812123,0.0975609756097561,0.049263462931659,0.0082105771552765,0.000724462690171456,0.0813813088625936
"436","Fayetteville, AR",-94.1718542,36.082156,7510,"origin",0.0191744340878828,0.236218375499334,0.0828229027962716,0.0404793608521971,0.0118508655126498,0.000399467376830892,0.0912117177097204
"437","Fayetteville, NC",-78.8783585,35.0526641,1937,"origin",0.0165203923593185,0.311306143520909,0.0810531750129066,0.0686628807434177,0.00826019617965927,0,0.116675271037687
"438","Flagstaff, AZ",-111.651302,35.1982836,1286,"origin",0.015552099533437,0.216174183514774,0.0614307931570762,0.0264385692068429,0.00388802488335925,0.00233281493001555,0.0559875583203732
"439","Flint, MI",-83.6874562,43.0125274,4107,"origin",0.0189919649379109,0.270513757000243,0.118578037496956,0.0681762843925006,0.00730460189919649,0.000973946919892866,0.104942780618456
"440","Florence, SC",-79.7625625,34.1954331,156,"origin",0.0192307692307692,0.41025641025641,0.0641025641025641,0.198717948717949,0,0,0.153846153846154
"441","Fort Lauderdale, FL",-80.1373174,26.1224386,88767,"origin",0.0231617605641736,0.393626009665754,0.128324715265808,0.120720538037784,0.0146901438597677,0.00239954036973199,0.104239187986527
"442","Fort Myers, FL",-81.8723084,26.640628,31205,"origin",0.0197724723601987,0.323313571543022,0.0899214869411953,0.0797949046627143,0.00570421406825829,0.000288415318058004,0.099567377022913
"443","Fort Smith, AR",-94.3985475,35.3859242,1383,"origin",0.0159074475777296,0.167028199566161,0.0542299349240781,0.0462762111352133,0.0101229211858279,0,0.081706435285611
"444","Fort Wayne, IN",-85.1393513,41.079273,6144,"origin",0.0125325520833333,0.257975260416667,0.0983072916666667,0.0745442708333333,0.00911458333333333,0.00048828125,0.0908203125
"445","Fresno, CA",-119.7871247,36.7377981,8843,"origin",0.00599344113988465,0.230125523012552,0.0815334162614497,0.0563157299558973,0.00226167590184327,0.000226167590184327,0.0620830035055976
"446","Gainesville, FL",-82.3248262,29.6516344,2157,"origin",0.0162262401483542,0.306907742234585,0.0829856281872972,0.0853036624942049,0.00834492350486787,0,0.117756142790913
"447","Garden City, KS",-100.8726618,37.9716898,240,"origin",0.0208333333333333,0.270833333333333,0.0583333333333333,0.0458333333333333,0.0291666666666667,0,0.0708333333333333
"448","Gillette, WY",-105.5022205,44.2910915,976,"origin",0.014344262295082,0.173155737704918,0.0686475409836066,0.0276639344262295,0.0102459016393443,0.00102459016393443,0.0778688524590164
"449","Grand Forks, ND",-97.0328547,47.9252568,1568,"origin",0.0178571428571429,0.174107142857143,0.0637755102040816,0.0376275510204082,0.0121173469387755,0.00318877551020408,0.0714285714285714
"450","Grand Island, NE",-98.3420118,40.9263957,533,"origin",0.0206378986866792,0.350844277673546,0.140712945590994,0.0956848030018762,0.0393996247654784,0.00375234521575985,0.0769230769230769
"451","Grand Junction, CO",-108.5506486,39.0638705,2877,"origin",0.00312825860271116,0.132082029892249,0.0382342718109141,0.0194647201946472,0.0024330900243309,0,0.0437956204379562
"452","Grand Rapids, MI",-85.6680863,42.9633599,12662,"origin",0.0157163165376718,0.282656768283052,0.105986416048018,0.0676828305165061,0.0107407992418259,0.000157952930026852,0.09658821671142
"453","Great Falls, MT",-111.3007715,47.5052849,1636,"origin",0.00366748166259169,0.169926650366748,0.0488997555012225,0.0311735941320293,0.0122249388753056,0,0.0446210268948655
"454","Green Bay, WI",-88.0132958,44.5133188,4425,"origin",0.0212429378531073,0.179887005649718,0.0861016949152542,0.0289265536723164,0.00610169491525424,0.000225988700564972,0.0836158192090395
"455","Greensboro/High Point, NC",-79.8296743,36.0899873,7847,"origin",0.0272715687523894,0.262265834076717,0.11138014527845,0.0620619344972601,0.00573467567223143,0.000127437237160698,0.0934114948387919
"456","Greenville, NC",-77.3663538,35.612661,99,"origin",0.0303030303030303,0.424242424242424,0.111111111111111,0.191919191919192,0,0.0101010101010101,0.161616161616162
"457","Greer, SC",-82.2270568,34.9387279,8200,"origin",0.0168292682926829,0.275853658536585,0.0792682926829268,0.0581707317073171,0.00365853658536585,0.000731707317073171,0.0758536585365854
"458","Gulfport/Biloxi, MS",-89.0928155,30.3674198,2893,"origin",0.0214310404424473,0.210853784998272,0.0732803318354649,0.0438990667127549,0.0079502246802627,0,0.0687867265814034
"459","Gunnison, CO",-106.9253207,38.5458246,183,"origin",0.0109289617486339,0.218579234972678,0.0546448087431694,0.0163934426229508,0.00546448087431694,0,0.103825136612022
"460","Gustavus, AK",-135.7369443,58.4133333,84,"origin",0.0476190476190476,0.166666666666667,0.0833333333333333,0.0714285714285714,0,0.0238095238095238,0.0952380952380952
"461","Hagerstown, MD",-77.7199932,39.6417629,35,"origin",0,0.571428571428571,0.171428571428571,0.142857142857143,0.0857142857142857,0.0285714285714286,0.4
"462","Hancock/Houghton, MI",-88.5809563,47.1268714,727,"origin",0.0550206327372765,0.173314993122421,0.0880330123796424,0.0412654745529574,0.00962861072902338,0.00275103163686382,0.0756533700137552
"463","Harlingen/San Benito, TX",-97.6311006,26.132576,2826,"origin",0.0300778485491861,0.349610757254069,0.0927105449398443,0.0866949752300071,0.00353857041755131,0.000353857041755131,0.147204529370134
"464","Harrisburg, PA",-76.8867008,40.2731911,4263,"origin",0.0234576589256392,0.220501993901009,0.0736570490265072,0.0504339666901243,0.00938306357025569,0,0.0696692470091485
"465","Hartford, CT",-72.6733723,41.7658043,23966,"origin",0.0252858215805725,0.28323458232496,0.0867061670700159,0.0832012017024118,0.00650922139697905,0.000208628890928816,0.0779020278728198
"466","Hattiesburg/Laurel, MS",-89.335421,31.468239,722,"origin",0.0415512465373961,0.303324099722992,0.119113573407202,0.0997229916897507,0.00692520775623269,0.00277008310249307,0.121883656509695
"467","Hayden, CO",-107.2636842,40.4894302,1131,"origin",0.0212201591511936,0.258178603006189,0.0893015030946065,0.0495137046861185,0.0114942528735632,0,0.103448275862069
"468","Hays, KS",-99.3267702,38.8791783,664,"origin",0.019578313253012,0.180722891566265,0.0677710843373494,0.0286144578313253,0.00451807228915663,0,0.0692771084337349
"469","Helena, MT",-112.0391057,46.5891452,1670,"origin",0.00419161676646707,0.14311377245509,0.0730538922155689,0.0323353293413174,0.00538922155688623,0.000598802395209581,0.0305389221556886
"470","Hibbing, MN",-92.9376887,47.4271546,624,"origin",0.0176282051282051,0.149038461538462,0.0689102564102564,0.0288461538461538,0.00641025641025641,0.0016025641025641,0.0560897435897436
"471","Hilo, HI",-155.0868193,19.7241106,6208,"origin",0.00273840206185567,0.290753865979381,0.00950386597938144,0.0586340206185567,0.00757087628865979,0,0.0839239690721649
"472","Hobbs, NM",-103.1360403,32.7026116,659,"origin",0.031866464339909,0.0940819423368741,0.0622154779969651,0.0166919575113809,0.0106221547799697,0,0.0166919575113809
"473","Honolulu, HI",-157.8583333,21.3069444,48154,"origin",0.00303193919508244,0.259459234954521,0.0206005731611081,0.0795780205175063,0.0041948747767579,0.000519167670390829,0.0371308717863521
"474","Houston, TX",-95.3698028,29.7604267,196892,"origin",0.0315350547508279,0.318783901834508,0.0775602868577697,0.0809072994331918,0.010813034557016,0.000289498811531195,0.0762753184486927
"475","Huntsville, AL",-86.5861037,34.7303688,5398,"origin",0.0216746943312338,0.216191181919229,0.0690996665431641,0.0459429418303075,0.00685439051500556,0.000185253797702853,0.0813264171915524
"476","Hyannis, MA",-70.2881124,41.6524911,94,"origin",0.0106382978723404,0.553191489361702,0.202127659574468,0.106382978723404,0.0106382978723404,0.0106382978723404,0.159574468085106
"477","Idaho Falls, ID",-112.0407584,43.4926607,2455,"origin",0.00366598778004073,0.194297352342159,0.0480651731160896,0.0260692464358452,0.0044806517311609,0,0.0659877800407332
"478","Indianapolis, IN",-86.158068,39.768403,34035,"origin",0.0142206552078742,0.306184809754664,0.0964007639194946,0.0714852357866902,0.0108417805200529,0.000235052152196269,0.0845600117526076
"479","International Falls, MN",-93.4040679,48.6023149,625,"origin",0.0192,0.1456,0.064,0.0192,0.0016,0.0016,0.0864
"480","Iron Mountain/Kingsfd, MI",-88.0720706,45.7949561,676,"origin",0.0162721893491124,0.29585798816568,0.0828402366863905,0.0428994082840237,0.0118343195266272,0.0029585798816568,0.119822485207101
"481","Islip, NY",-73.2103934,40.7298207,5923,"origin",0.0330913388485565,0.37227756204626,0.0938713489785582,0.100962350160392,0.00607800101300017,0.000337666722944454,0.100624683437447
"482","Ithaca/Cortland, NY",-76.5002026,42.4383677,1002,"origin",0.00898203592814371,0.24750499001996,0.12375249500998,0.0578842315369262,0.0129740518962076,0.000998003992015968,0.12375249500998
"483","Jackson, WY",-110.7624282,43.4799291,3725,"origin",0.00885906040268456,0.27006711409396,0.0920805369127517,0.0561073825503356,0.010738255033557,0,0.0816107382550336
"484","Jackson/Vicksburg, MS",-90.8745758,32.3522304,5489,"origin",0.0225906358170887,0.228456913827655,0.0765166697030425,0.0570231371834578,0.0105665877208963,0.000182182546912006,0.0739661140462744
"485","Jacksonville, FL",-81.655651,30.3321838,20775,"origin",0.0231046931407942,0.302334536702768,0.0817328519855596,0.0814440433212996,0.00972322503008424,0.000288808664259928,0.100024067388688
"486","Jacksonville/Camp Lejeune, NC",-77.4013403,34.6250544,1473,"origin",0.0285132382892057,0.278343516632722,0.0685675492192804,0.0773930753564155,0.00271554650373388,0.000678886625933469,0.109300746775289
"487","Jamestown, ND",-98.7084357,46.9105438,987,"origin",0.0435663627152989,0.210739614994934,0.049645390070922,0.0455927051671733,0.00506585612968592,0.00101317122593718,0.0749746707193516
"488","Joplin, MO",-94.513281,37.0842271,466,"origin",0.0321888412017167,0.229613733905579,0.158798283261803,0.0879828326180258,0.0171673819742489,0,0.092274678111588
"489","Juneau, AK",-134.4197221,58.3019444,4429,"origin",0.0112892300745089,0.204786633551592,0.073379995484308,0.0462858433054866,0.0051930458342741,0.00428990742831339,0.0510273199367803
"490","Kahului, HI",-156.4729469,20.8893351,24607,"origin",0.00455155037184541,0.292518389076279,0.0257650262120535,0.0839192099808997,0.00605518754825863,0.000609582639086439,0.0756288860893242
"491","Kalamazoo, MI",-85.5872286,42.2917069,2341,"origin",0.0243485689876121,0.20333190944041,0.0995301153353268,0.0435711234515164,0.00982486117043998,0.000427167876975651,0.10807347287484
"492","Kalispell, MT",-114.316813,48.1919889,2369,"origin",0.00337695230054875,0.199240185732377,0.0713381173490924,0.0274377374419586,0.00886449978894048,0.000422119037568594,0.0810468552131701
"493","Kansas City, MO",-94.5785667,39.0997265,48337,"origin",0.0127024846390963,0.326209735813145,0.0681672424850529,0.0664915075408073,0.00672362786271386,0.000475825971822827,0.0917516602188799
"494","Ketchikan, AK",-131.6461112,55.3422222,2426,"origin",0.0123660346248969,0.240313272877164,0.0820280296784831,0.0387469084913438,0.00700741962077494,0.00164880461665293,0.0774938169826875
"495","Key West, FL",-81.7799871,24.5550593,2816,"origin",0.0308948863636364,0.273082386363636,0.0681818181818182,0.0493607954545455,0.00213068181818182,0.000355113636363636,0.0692471590909091
"496","Killeen, TX",-97.7277959,31.1171194,1865,"origin",0.0343163538873995,0.246112600536193,0.0927613941018767,0.0761394101876676,0.00804289544235925,0.000536193029490617,0.0798927613941019
"497","King Salmon, AK",-156.661351,58.6883251,63,"origin",0,0.222222222222222,0.0634920634920635,0.0158730158730159,0,0.0158730158730159,0.0317460317460317
"498","Knoxville, TN",-83.9207392,35.9606384,9194,"origin",0.0184903197737655,0.262018707852948,0.0939743310854905,0.0684141831629324,0.00674352838807918,0.000217533173809006,0.0848379377855123
"499","Kodiak, AK",-152.4072221,57.79,645,"origin",0.0449612403100775,0.186046511627907,0.0713178294573643,0.013953488372093,0.0062015503875969,0.013953488372093,0.075968992248062
"500","Kona, HI",-155.9969261,19.639994,14159,"origin",0.00395508157355746,0.260964757398121,0.0320644113284837,0.0634225580902606,0.00621512818701886,0.00162440850342538,0.0692139275372555
"501","Kotzebue, AK",-162.5966666,66.8983333,720,"origin",0.0527777777777778,0.233333333333333,0.0916666666666667,0.0388888888888889,0.0180555555555556,0.0152777777777778,0.0583333333333333
"502","La Crosse, WI",-91.2519017,43.8137751,2096,"origin",0.0162213740458015,0.221374045801527,0.0858778625954199,0.0305343511450382,0.0119274809160305,0.000477099236641221,0.111164122137405
"503","Lafayette, LA",-92.0198427,30.2240897,2987,"origin",0.0254435888851691,0.194174757281553,0.0816873116839638,0.0448610646133244,0.0107130900569133,0.00033478406427854,0.0823568798125209
"504","Lake Charles, LA",-93.2173758,30.2265949,1284,"origin",0.0373831775700935,0.122274143302181,0.0514018691588785,0.0358255451713396,0.00778816199376947,0,0.0428348909657321
"505","Lansing, MI",-84.5555347,42.732535,2576,"origin",0.015916149068323,0.21195652173913,0.0900621118012422,0.0384316770186335,0.0062111801242236,0,0.0993788819875776
"506","Laramie, WY",-105.5911007,41.3113669,624,"origin",0.0144230769230769,0.179487179487179,0.104166666666667,0.0416666666666667,0.016025641025641,0,0.0737179487179487
"507","Laredo, TX",-99.4803241,27.5305671,1962,"origin",0.0326197757390418,0.184505606523955,0.073394495412844,0.0586136595310907,0.0035677879714577,0.000509683995922528,0.0708460754332314
"508","Las Vegas, NV",-115.1398296,36.1699412,155112,"origin",0.00821341998040126,0.416814946619217,0.0874658311413688,0.106497240703492,0.00387461962968694,0.000606013719119088,0.115219970086131
"509","Latrobe, PA",-79.3794811,40.3211808,1057,"origin",0.0264900662251656,0.210974456007569,0.106906338694418,0.0510879848628193,0.00189214758751183,0.00283822138126774,0.0690633869441816
"510","Lawton/Fort Sill, OK",-98.4184224,34.5938359,948,"origin",0.0305907172995781,0.217299578059072,0.105485232067511,0.0738396624472574,0.0126582278481013,0,0.0875527426160338
"511","Lewisburg, WV",-80.4456303,37.8017879,58,"origin",0.0172413793103448,0.275862068965517,0.224137931034483,0.0689655172413793,0.0344827586206897,0,0.137931034482759
"512","Lewiston, ID",-117.001189,46.4004089,759,"origin",0.00131752305665349,0.075098814229249,0.00658761528326746,0.00790513833992095,0.00131752305665349,0,0.0289855072463768
"513","Lexington, KY",-84.5037164,38.0405837,6353,"origin",0.0225090508421218,0.233433023768298,0.111128600661105,0.0470643790335275,0.00849992129702503,0.000157405949944908,0.0912954509680466
"514","Liberal, KS",-100.920999,37.0430812,143,"origin",0.00699300699300699,0.223776223776224,0.118881118881119,0.0629370629370629,0.013986013986014,0,0.0769230769230769
"515","Lihue, HI",-159.3711111,21.9811111,13104,"origin",0.00549450549450549,0.258623321123321,0.0224358974358974,0.0618131868131868,0.00763125763125763,0,0.076541514041514
"516","Lincoln, NE",-96.7025955,40.813616,2526,"origin",0.00950118764845606,0.207838479809976,0.0768012668250198,0.0419635787806809,0.00791765637371338,0.000395882818685669,0.0716547901821061
"517","Little Rock, AR",-92.2895948,34.7464809,9295,"origin",0.0114039806347499,0.287573964497041,0.077568585260893,0.0701452393760086,0.00882194728348575,0.000322754168908015,0.0850995158687466
"518","Long Beach, CA",-118.1937395,33.7700504,17012,"origin",0.00681871620032918,0.317305431460146,0.0743592758053139,0.0958147190218669,0.00288031977427698,0.000176346108629203,0.107277216082765
"519","Longview, TX",-94.7404891,32.5007037,223,"origin",0.062780269058296,0.179372197309417,0.0896860986547085,0.0403587443946188,0.0269058295964126,0,0.0807174887892377
"520","Los Angeles, CA",-118.2436849,34.0522342,216648,"origin",0.00903770170968576,0.377437133045309,0.0983715520106348,0.100744064103984,0.00241405413389461,0.000655441084154943,0.102687308445035
"521","Louisville, KY",-85.7584557,38.2526647,13473,"origin",0.0191494099309731,0.318414606991761,0.0973057225562236,0.0745936317078602,0.00779336450679136,0.000668002672010688,0.0965634973651006
"522","Lubbock, TX",-101.8551665,33.5778631,4858,"origin",0.015232606010704,0.288390284067517,0.0710168793742281,0.0658707286949362,0.00679291889666529,0.000205846027171676,0.106628242074928
"523","Lynchburg, VA",-79.1422464,37.4137536,303,"origin",0.0462046204620462,0.29042904290429,0.0924092409240924,0.0825082508250825,0.0198019801980198,0,0.0924092409240924
"524","Madison, WI",-89.4012302,43.0730517,10001,"origin",0.0140985901409859,0.231076892310769,0.0816918308169183,0.0385961403859614,0.0090990900909909,9.99900009999e-05,0.0911908809119088
"525","Mammoth Lakes, CA",-118.972079,37.648546,104,"origin",0.125,0.403846153846154,0.115384615384615,0.0288461538461538,0.00961538461538462,0,0.240384615384615
"526","Manchester, NH",-71.4547891,42.9956397,7738,"origin",0.0330834841044197,0.260790902041871,0.084259498578444,0.0555699147066425,0.00478159731196692,0.00012923235978289,0.0767640217110364
"527","Manhattan/Ft. Riley, KS",-96.5716694,39.1836082,1435,"origin",0.0174216027874564,0.191637630662021,0.0968641114982578,0.0578397212543554,0.00905923344947735,0,0.0836236933797909
"528","Marquette, MI",-87.3955954,46.5475825,1010,"origin",0.0376237623762376,0.233663366336634,0.131683168316832,0.0594059405940594,0.0128712871287129,0.00198019801980198,0.0772277227722772
"529","Martha's Vineyard, MA",-70.645473,41.3804981,241,"origin",0.024896265560166,0.655601659751037,0.20746887966805,0.178423236514523,0.020746887966805,0.016597510373444,0.190871369294606
"530","Medford, OR",-122.8755949,42.3265152,3852,"origin",0.0106438213914849,0.318535825545171,0.106178608515057,0.0464693665628245,0.0033748701973001,0.000259605399792316,0.105659397715472
"531","Melbourne, FL",-80.6081089,28.0836269,1871,"origin",0.0128273650454303,0.21004810261892,0.0582576162479957,0.0523784072688402,0.0085515766969535,0,0.0636023516835917
"532","Memphis, TN",-90.0489801,35.1495343,17065,"origin",0.0170524465279812,0.296161734544389,0.0796952827424553,0.0734251391737474,0.00697333723996484,0.00017579841781424,0.0849692352768825
"533","Meridian, MS",-88.703656,32.3643098,1087,"origin",0.0239190432382705,0.36982520699172,0.172033118675253,0.0607175712971481,0.00919963201471941,0.00183992640294388,0.233670653173873
"534","Miami, FL",-80.1917902,25.7616798,71263,"origin",0.0225502715294052,0.334254802632502,0.0974559027826502,0.0937653480768421,0.0143131779464799,0.000645496260331448,0.0716079873145952
"535","Midland/Odessa, TX",-102.3676431,31.8456816,6386,"origin",0.0195740682743501,0.287503914813655,0.0652990917632321,0.0670216097713749,0.00923896022549327,0.00109614782336361,0.103037895396179
"536","Milwaukee, WI",-87.9064736,43.0389025,30961,"origin",0.0144375181680178,0.300571686961015,0.0883046413229547,0.0648557863118116,0.00881754465295049,0.000258389586899648,0.0815219146668389
"537","Minneapolis, MN",-93.2650108,44.977753,143233,"origin",0.011387040695929,0.265357843513715,0.0903492910153386,0.0664860751363164,0.00830814128029155,0.00016057752054345,0.0550990344403873
"538","Minot, ND",-101.2922906,48.2329668,1957,"origin",0.0183955033214103,0.202350536535514,0.0505876341338784,0.0403679100664282,0.0143076136944302,0.00255493101686254,0.0516096065406234
