"","city_name","lon","lat","flights.sum","cancelled.counter","delay.counter","nas_delay.counter","carrier_delay.counter","weather_delay.counter","security_delay.counter","late_aircraft_delay.counter","type","cancelled.percent","delay.percent","nas_delay.percent","carrier_delay.percent","weather_delay.percent","security_delay.percent","late_aircraft_delay.percent","not_cancelled.percent","not_delay.percent","not_nas_delay.percent","not_carrier_delay.percent","not_weather_delay.percent","not_security_delay.percent","not_late_aircraft_delay.percent"
"1","Aberdeen, SD",-98.4864829,45.4646985,728,11,120,32,27,7,0,40,"destination",0.0151098901098901,0.164835164835165,0.043956043956044,0.0370879120879121,0.00961538461538462,0,0.0549450549450549,0.98489010989011,0.835164835164835,0.956043956043956,0.962912087912088,0.990384615384615,1,0.945054945054945
"2","Abilene, TX",-99.7331439,32.4487364,629,20,155,80,56,21,0,77,"destination",0.0317965023847377,0.246422893481717,0.127186009538951,0.0890302066772655,0.0333863275039746,0,0.12241653418124,0.968203497615262,0.753577106518283,0.872813990461049,0.910969793322735,0.966613672496025,1,0.87758346581876
"3","Adak Island, AK",-176.6217472,51.7615874,103,8,15,8,5,1,0,1,"destination",0.0776699029126214,0.145631067961165,0.0776699029126214,0.0485436893203883,0.00970873786407767,0,0.00970873786407767,0.922330097087379,0.854368932038835,0.922330097087379,0.951456310679612,0.990291262135922,1,0.990291262135922
"4","Akron, OH",-81.5190053,41.0814447,6178,132,2088,649,672,87,8,762,"destination",0.0213661379087083,0.337973454192295,0.105050178051149,0.108773065717061,0.0140822272580123,0.00129491744901263,0.123340887018453,0.978633862091292,0.662026545807705,0.894949821948851,0.891226934282939,0.985917772741988,0.998705082550987,0.876659112981547
"5","Albany, GA",-84.155741,31.5785074,630,5,144,59,65,8,0,43,"destination",0.00793650793650794,0.228571428571429,0.0936507936507937,0.103174603174603,0.0126984126984127,0,0.0682539682539682,0.992063492063492,0.771428571428571,0.906349206349206,0.896825396825397,0.987301587301587,1,0.931746031746032
"6","Albany, NY",-73.7562317,42.6525793,10548,177,4031,765,1238,125,9,1078,"destination",0.0167804323094425,0.382157755024649,0.0725255972696246,0.117368221463785,0.0118505877891543,0.000853242320819113,0.102199469093667,0.983219567690557,0.617842244975351,0.927474402730375,0.882631778536215,0.988149412210846,0.999146757679181,0.897800530906333
"7","Albuquerque, NM",-106.650422,35.0843859,20702,151,8607,1449,2458,131,18,2582,"destination",0.00729398125784948,0.415756931697421,0.0699932373683702,0.11873248961453,0.00632789102502174,0.000869481209544972,0.124722249058062,0.99270601874215,0.584243068302579,0.93000676263163,0.88126751038547,0.993672108974978,0.999130518790455,0.875277750941938
"8","Alexandria, LA",-92.4451371,31.3112936,1951,56,398,143,140,24,0,120,"destination",0.0287032291132752,0.203997949769349,0.0732957457713993,0.0717580727831881,0.0123013839056894,0,0.061506919528447,0.971296770886725,0.796002050230651,0.926704254228601,0.928241927216812,0.987698616094311,1,0.938493080471553
"9","Allentown/Bethlehem/Easton, PA",-75.441415,40.651834,2853,41,803,260,271,34,1,239,"destination",0.0143708377146863,0.281458114265685,0.0911321416053277,0.094987732211707,0.0119172800560813,0.000350508236943568,0.0837714686295128,0.985629162285314,0.718541885734315,0.908867858394672,0.905012267788293,0.988082719943919,0.999649491763056,0.916228531370487
"10","Alpena, MI",-83.4327528,45.0616794,623,31,131,26,26,3,0,48,"destination",0.0497592295345104,0.210272873194221,0.0417335473515249,0.0417335473515249,0.00481540930979133,0,0.0770465489566613,0.95024077046549,0.789727126805779,0.958266452648475,0.958266452648475,0.995184590690209,1,0.922953451043339
"11","Amarillo, TX",-101.8312969,35.2219971,3693,69,1247,297,345,30,2,415,"destination",0.0186839967506093,0.337665854318982,0.0804224207961007,0.0934199837530463,0.00812347684809098,0.000541565123206066,0.112374763065259,0.981316003249391,0.662334145681018,0.919577579203899,0.906580016246954,0.991876523151909,0.999458434876794,0.887625236934741
"12","Anchorage, AK",-149.9002778,61.2180556,17443,187,5091,1647,1019,113,118,903,"destination",0.0107206329186493,0.291864931491143,0.0944218311070343,0.0584188499684687,0.0064782434214298,0.00676489136043112,0.0517686177836381,0.989279367081351,0.708135068508857,0.905578168892966,0.941581150031531,0.99352175657857,0.993235108639569,0.948231382216362
"13","Appleton, WI",-88.4153847,44.2619309,3324,48,810,227,253,28,0,254,"destination",0.0144404332129964,0.243682310469314,0.0682912154031288,0.0761131167268351,0.00842358604091456,0,0.0764139590854392,0.985559566787004,0.756317689530686,0.931708784596871,0.923886883273165,0.991576413959085,1,0.923586040914561
"14","Arcata/Eureka, CA",-124.1065825,40.9709197,1205,44,338,128,96,17,0,165,"destination",0.0365145228215768,0.280497925311203,0.106224066390041,0.0796680497925311,0.0141078838174274,0,0.136929460580913,0.963485477178423,0.719502074688797,0.893775933609959,0.920331950207469,0.985892116182573,1,0.863070539419087
"15","Asheville, NC",-82.5514869,35.5950581,4588,76,1480,414,524,56,6,547,"destination",0.016564952048823,0.32258064516129,0.0902353966870096,0.114210985178727,0.012205754141238,0.0013077593722755,0.11922406277245,0.983435047951177,0.67741935483871,0.90976460331299,0.885789014821273,0.987794245858762,0.998692240627725,0.88077593722755
"16","Ashland, WV",-81.3526016,37.4084488,130,1,40,10,15,2,0,11,"destination",0.00769230769230769,0.307692307692308,0.0769230769230769,0.115384615384615,0.0153846153846154,0,0.0846153846153846,0.992307692307692,0.692307692307692,0.923076923076923,0.884615384615385,0.984615384615385,1,0.915384615384615
"17","Aspen, CO",-106.8175387,39.1910983,6263,192,1896,679,532,104,3,626,"destination",0.0306562350311352,0.30273032093246,0.108414497844483,0.0849433178987706,0.0166054606418649,0.000479003672361488,0.0999520996327639,0.969343764968865,0.697269679067539,0.891585502155517,0.915056682101229,0.983394539358135,0.999520996327638,0.900047900367236
"18","Atlanta, GA",-84.3879824,33.7489954,366548,4420,109289,26850,25438,2867,132,27047,"destination",0.0120584480068095,0.298157403668824,0.0732509794078811,0.0693988236192804,0.00782162227048027,0.000360116546809695,0.073788426072438,0.987941551993191,0.701842596331176,0.926749020592119,0.93060117638072,0.99217837772952,0.99963988345319,0.926211573927562
"19","Atlantic City, NJ",-74.4229266,39.3642834,3444,102,1021,427,208,34,5,145,"destination",0.029616724738676,0.296457607433217,0.123983739837398,0.0603948896631823,0.00987224157955865,0.00145180023228804,0.0421022067363531,0.970383275261324,0.703542392566783,0.876016260162602,0.939605110336818,0.990127758420441,0.998548199767712,0.957897793263647
"20","Augusta, GA",-82.0105148,33.4734978,2794,29,909,265,294,44,0,274,"destination",0.0103793843951324,0.325340014316392,0.0948460987831067,0.105225483178239,0.015748031496063,0,0.098067287043665,0.989620615604868,0.674659985683608,0.905153901216893,0.894774516821761,0.984251968503937,1,0.901932712956335
"21","Austin, TX",-97.7430608,30.267153,56033,527,21095,4754,6048,450,32,5750,"destination",0.00940517195224243,0.376474577481127,0.0848428604572306,0.107936394624596,0.0080309817429015,0.000571092035050774,0.102618100048186,0.990594828047758,0.623525422518873,0.915157139542769,0.892063605375404,0.991969018257098,0.999428907964949,0.897381899951814
"22","Bakersfield, CA",-119.0187125,35.3732921,2234,13,569,179,172,5,2,221,"destination",0.00581915846016115,0.254700089525515,0.0801253357206804,0.0769919427036705,0.00223813786929275,0.000895255147717099,0.0989256938227395,0.994180841539839,0.745299910474485,0.91987466427932,0.92300805729633,0.997761862130707,0.999104744852283,0.90107430617726
"23","Baltimore, MD",-76.6121893,39.2903848,103438,1912,40486,7012,9460,892,84,9941,"destination",0.0184845027939442,0.391403546085578,0.0677894004137744,0.0914557512712929,0.00862352326997815,0.000812080666679557,0.0961058798507318,0.981515497206056,0.608596453914422,0.932210599586226,0.908544248728707,0.991376476730022,0.99918791933332,0.903894120149268
"24","Bangor, ME",-68.7712257,44.8016128,1894,120,516,171,154,14,0,203,"destination",0.0633579725448786,0.272439281942978,0.090285110876452,0.0813093980992608,0.00739176346356917,0,0.107180570221753,0.936642027455121,0.727560718057022,0.909714889123548,0.918690601900739,0.992608236536431,1,0.892819429778247
"25","Barrow, AK",-156.788611,71.2905556,833,14,124,35,18,9,0,33,"destination",0.0168067226890756,0.148859543817527,0.0420168067226891,0.021608643457383,0.0108043217286915,0,0.0396158463385354,0.983193277310924,0.851140456182473,0.957983193277311,0.978391356542617,0.989195678271308,1,0.960384153661465
"26","Baton Rouge, LA",-91.1871466,30.4514677,6913,128,1804,558,673,32,0,618,"destination",0.0185158397222624,0.260957616085636,0.0807174887892377,0.0973528135397078,0.0046289599305656,0,0.0893967886590482,0.981484160277738,0.739042383914364,0.919282511210762,0.902647186460292,0.995371040069434,1,0.910603211340952
"27","Beaumont/Port Arthur, TX",-94.1265562,30.080174,241,13,46,22,17,9,0,21,"destination",0.0539419087136929,0.190871369294606,0.0912863070539419,0.0705394190871369,0.037344398340249,0,0.0871369294605809,0.946058091286307,0.809128630705394,0.908713692946058,0.929460580912863,0.962655601659751,1,0.912863070539419
"28","Belleville, IL",-89.9839935,38.5200504,324,2,110,42,44,1,1,30,"destination",0.00617283950617284,0.339506172839506,0.12962962962963,0.135802469135802,0.00308641975308642,0.00308641975308642,0.0925925925925926,0.993827160493827,0.660493827160494,0.87037037037037,0.864197530864198,0.996913580246914,0.996913580246914,0.907407407407407
"29","Bellingham, WA",-122.4786854,48.7519112,1382,18,303,120,91,8,2,91,"destination",0.0130246020260492,0.219247467438495,0.0868306801736614,0.0658465991316932,0.00578871201157742,0.00144717800289436,0.0658465991316932,0.986975397973951,0.780752532561505,0.913169319826339,0.934153400868307,0.994211287988423,0.998552821997106,0.934153400868307
"30","Bemidji, MN",-94.8826861,47.471573,727,7,133,41,25,7,0,44,"destination",0.00962861072902338,0.182943603851444,0.0563961485557084,0.0343878954607978,0.00962861072902338,0,0.0605226960110041,0.990371389270977,0.817056396148556,0.943603851444292,0.965612104539202,0.990371389270977,1,0.939477303988996
"31","Bend/Redmond, OR",-121.299079,44.1617823,3899,50,982,334,267,24,1,401,"destination",0.0128238009746089,0.251859451141318,0.0856629905103873,0.0684790972044114,0.00615542446781226,0.000256476019492177,0.102846883816363,0.987176199025391,0.748140548858682,0.914337009489613,0.931520902795589,0.993844575532188,0.999743523980508,0.897153116183637
"32","Bethel, AK",-161.7558334,60.7922222,919,27,118,43,33,5,0,20,"destination",0.029379760609358,0.128400435255713,0.0467899891186072,0.0359085963003264,0.00544069640914037,0,0.0217627856365615,0.970620239390642,0.871599564744287,0.953210010881393,0.964091403699673,0.99455930359086,1,0.978237214363438
"33","Billings, MT",-108.5006904,45.7832856,3669,13,857,247,268,36,0,206,"destination",0.00354319978195694,0.233578631779777,0.0673207958571818,0.0730444262741892,0.0098119378577269,0,0.0561460888525484,0.996456800218043,0.766421368220223,0.932679204142818,0.926955573725811,0.990188062142273,1,0.943853911147452
"34","Binghamton, NY",-75.9179738,42.0986867,874,20,228,68,72,12,0,74,"destination",0.022883295194508,0.260869565217391,0.0778032036613272,0.0823798627002288,0.0137299771167048,0,0.0846681922196796,0.977116704805492,0.739130434782609,0.922196796338673,0.917620137299771,0.986270022883295,1,0.91533180778032
"35","Birmingham, AL",-86.80249,33.5206608,13529,237,4809,972,1471,192,4,1422,"destination",0.0175179244585705,0.355458644393525,0.0718456648680612,0.108729396112056,0.0141917362702343,0.000295661172296548,0.105107546751423,0.98248207554143,0.644541355606475,0.928154335131939,0.891270603887944,0.985808263729766,0.999704338827703,0.894892453248577
"36","Bismarck/Mandan, ND",-100.8895761,46.8266603,2907,43,740,248,230,35,0,222,"destination",0.0147918816649467,0.254557963536292,0.0853113175094599,0.0791193670450636,0.0120399036807706,0,0.0763673890608875,0.985208118335053,0.745442036463708,0.91468868249054,0.920880632954936,0.987960096319229,1,0.923632610939113
"37","Bloomington/Normal, IL",-88.9906312,40.5142026,2536,40,688,210,247,35,1,261,"destination",0.0157728706624606,0.271293375394322,0.082807570977918,0.097397476340694,0.013801261829653,0.000394321766561514,0.102917981072555,0.984227129337539,0.728706624605678,0.917192429022082,0.902602523659306,0.986198738170347,0.999605678233438,0.897082018927445
"38","Boise, ID",-116.2023137,43.6150186,17289,76,5580,1155,1369,105,10,1696,"destination",0.00439585863844063,0.32274856845393,0.066805483255249,0.0791832957371739,0.00607322575047718,0.000578402452426398,0.0980970559315171,0.995604141361559,0.67725143154607,0.933194516744751,0.920816704262826,0.993926774249523,0.999421597547574,0.901902944068483
"39","Boston, MA",-71.0588801,42.3600825,131545,3703,49720,18080,14298,1457,58,15504,"destination",0.0281500627161808,0.377969516135163,0.137443460412786,0.10869284275343,0.0110760576228667,0.000440913755748983,0.117860808088487,0.971849937283819,0.622030483864837,0.862556539587213,0.89130715724657,0.988923942377133,0.999559086244251,0.882139191911513
"40","Bozeman, MT",-111.0429339,45.6769979,5557,26,1498,495,440,59,1,334,"destination",0.00467878351628577,0.269569911822926,0.0890768400215944,0.0791794133525283,0.0106172395177254,0.000179953212164837,0.0601043728630556,0.995321216483714,0.730430088177074,0.910923159978406,0.920820586647472,0.989382760482275,0.999820046787835,0.939895627136944
"41","Brainerd, MN",-94.2020084,46.3526733,636,10,113,29,34,5,0,39,"destination",0.0157232704402516,0.177672955974843,0.0455974842767296,0.0534591194968553,0.00786163522012579,0,0.0613207547169811,0.984276729559748,0.822327044025157,0.95440251572327,0.946540880503145,0.992138364779874,1,0.938679245283019
"42","Bristol/Johnson City/Kingsport, TN",-82.1888089,36.595141,2052,19,591,166,234,19,2,211,"destination",0.00925925925925926,0.288011695906433,0.0808966861598441,0.114035087719298,0.00925925925925926,0.000974658869395711,0.102826510721248,0.990740740740741,0.711988304093567,0.919103313840156,0.885964912280702,0.990740740740741,0.999025341130604,0.897173489278752
"43","Brownsville, TX",-97.4974838,25.9017472,1436,45,266,83,81,19,1,77,"destination",0.0313370473537604,0.185236768802228,0.0577994428969359,0.0564066852367688,0.0132311977715877,0.000696378830083565,0.0536211699164345,0.96866295264624,0.814763231197772,0.942200557103064,0.943593314763231,0.986768802228412,0.999303621169916,0.946378830083565
"44","Brunswick, GA",-81.4914894,31.1499528,694,10,170,62,73,2,0,45,"destination",0.0144092219020173,0.244956772334294,0.0893371757925072,0.105187319884726,0.00288184438040346,0,0.0648414985590778,0.985590778097983,0.755043227665706,0.910662824207493,0.894812680115274,0.997118155619596,1,0.935158501440922
"45","Buffalo, NY",-78.8783689,42.8864468,20373,515,7583,1704,2730,206,11,2333,"destination",0.0252785549501792,0.372208314926619,0.0836401119128258,0.134000883522309,0.0101114219800717,0.000539930299906739,0.114514308152948,0.974721445049821,0.627791685073381,0.916359888087174,0.865999116477691,0.989888578019928,0.999460069700093,0.885485691847053
"46","Bullhead City, AZ",-114.5285981,35.1359386,290,0,50,32,32,0,0,18,"destination",0,0.172413793103448,0.110344827586207,0.110344827586207,0,0,0.0620689655172414,1,0.827586206896552,0.889655172413793,0.889655172413793,1,1,0.937931034482759
"47","Burbank, CA",-118.3089661,34.1808392,26045,390,10551,1723,3066,57,22,3522,"destination",0.0149740833173354,0.405106546362066,0.0661547321942791,0.117719331925514,0.00218851986945671,0.000844691879439432,0.135227490881167,0.985025916682665,0.594893453637934,0.933845267805721,0.882280668074486,0.997811480130543,0.999155308120561,0.864772509118833
"48","Burlington, VT",-73.212072,44.4758825,5039,236,1574,461,611,62,1,551,"destination",0.0468346894225045,0.312363564199246,0.091486406032943,0.121254217106569,0.0123040285770986,0.000198452073824171,0.109347092677118,0.953165310577496,0.687636435800754,0.908513593967057,0.878745782893431,0.987695971422901,0.999801547926176,0.890652907322881
"49","Butte, MT",-112.5347775,46.0038232,677,8,105,17,20,12,0,21,"destination",0.0118168389955687,0.155096011816839,0.0251107828655835,0.0295420974889217,0.017725258493353,0,0.0310192023633678,0.988183161004431,0.844903988183161,0.974889217134417,0.970457902511078,0.982274741506647,1,0.968980797636632
"50","Cape Girardeau, MO",-89.5181476,37.3058839,256,13,67,17,12,1,0,32,"destination",0.05078125,0.26171875,0.06640625,0.046875,0.00390625,0,0.125,0.94921875,0.73828125,0.93359375,0.953125,0.99609375,1,0.875
"51","Casper, WY",-106.3251749,42.8500769,812,1,120,32,39,6,0,23,"destination",0.00123152709359606,0.147783251231527,0.0394088669950739,0.0480295566502463,0.00738916256157635,0,0.0283251231527094,0.998768472906404,0.852216748768473,0.960591133004926,0.951970443349754,0.992610837438424,1,0.971674876847291
"52","Cedar City, UT",-113.0618931,37.6774769,623,1,82,103,38,2,0,19,"destination",0.00160513643659711,0.131621187800963,0.165329052969502,0.0609951845906902,0.00321027287319422,0,0.0304975922953451,0.998394863563403,0.868378812199037,0.834670947030498,0.93900481540931,0.996789727126806,1,0.969502407704655
"53","Cedar Rapids/Iowa City, IA",-104.990251,41.9778795,6878,93,1709,622,561,102,2,576,"destination",0.0135213724920035,0.248473393428322,0.0904332654841524,0.0815644082582146,0.0148298924105845,0.000290782204129107,0.0837452747891829,0.986478627507997,0.751526606571678,0.909566734515848,0.918435591741785,0.985170107589415,0.999709217795871,0.916254725210817
"54","Champaign/Urbana, IL",-88.2433829,40.1164204,762,30,185,93,48,35,0,65,"destination",0.0393700787401575,0.242782152230971,0.122047244094488,0.062992125984252,0.0459317585301837,0,0.0853018372703412,0.960629921259842,0.757217847769029,0.877952755905512,0.937007874015748,0.954068241469816,1,0.914698162729659
"55","Charleston, SC",-79.9310512,32.7764749,16762,505,5551,1188,1676,179,8,1471,"destination",0.0301276697291493,0.331165732012886,0.0708745973034244,0.0999880682496122,0.0106789165970648,0.000477270015511275,0.0877580241021358,0.969872330270851,0.668834267987114,0.929125402696576,0.900011931750388,0.989321083402935,0.999522729984489,0.912241975897864
"56","Charleston/Dunbar, WV",-81.7373485,38.3606509,2788,92,776,208,262,53,1,257,"destination",0.0329985652797704,0.278335724533716,0.0746054519368723,0.093974175035868,0.0190100430416069,0.000358680057388809,0.092180774748924,0.96700143472023,0.721664275466284,0.925394548063128,0.906025824964132,0.980989956958393,0.999641319942611,0.907819225251076
"57","Charlotte, NC",-80.8431267,35.2270869,149860,2729,43355,11029,11273,1391,93,11443,"destination",0.0182103296409983,0.28930334979314,0.0735953556652876,0.0752235419725077,0.00928199653009476,0.000620579207260109,0.0763579340718003,0.981789670359002,0.71069665020686,0.926404644334712,0.924776458027492,0.990718003469905,0.99937942079274,0.9236420659282
"58","Charlottesville, VA",-78.4766781,38.0293059,3273,99,1100,350,369,45,2,444,"destination",0.0302474793767186,0.336083104185762,0.106935533150015,0.112740604949588,0.0137488542621448,0.000611060189428659,0.135655362053162,0.969752520623281,0.663916895814238,0.893064466849985,0.887259395050413,0.986251145737855,0.999388939810571,0.864344637946838
"59","Chattanooga, TN",-85.3096801,35.0456297,4885,93,1529,545,524,70,1,544,"destination",0.0190378710337769,0.312998976458547,0.111566018423746,0.107267144319345,0.0143295803480041,0.000204708290685773,0.11136131013306,0.980962128966223,0.687001023541453,0.888433981576254,0.892732855680655,0.985670419651996,0.999795291709314,0.88863868986694
"60","Chicago, IL",-87.6297982,41.8781136,375176,6887,116296,37608,26905,3257,206,34901,"destination",0.0183567179137258,0.309977184041623,0.10024095357912,0.0717130093609399,0.00868125892914259,0.000549075633835853,0.0930256732840054,0.981643282086274,0.690022815958377,0.89975904642088,0.92828699063906,0.991318741070857,0.999450924366164,0.906974326715995
"61","Cincinnati, OH",-84.5120196,39.1031182,29327,477,9597,2402,2704,335,8,2941,"destination",0.0162648753708187,0.32724110887578,0.0819040474647935,0.0922017253725236,0.0114229208579125,0.000272786169741194,0.100283015651106,0.983735124629181,0.67275889112422,0.918095952535206,0.907798274627476,0.988577079142087,0.999727213830259,0.899716984348893
"62","Clarksburg/Fairmont, WV",-80.1425781,39.4850848,373,11,97,42,40,2,0,41,"destination",0.0294906166219839,0.260053619302949,0.112600536193029,0.107238605898123,0.00536193029490617,0,0.109919571045576,0.970509383378016,0.739946380697051,0.887399463806971,0.892761394101877,0.994638069705094,1,0.890080428954424
"63","Cleveland, OH",-81.6943605,41.49932,40711,695,12942,3280,3826,372,6,4005,"destination",0.0170715531428852,0.317899339244922,0.0805679054800914,0.0939795141362285,0.00913757952396158,0.000147380314902606,0.0983763601974896,0.982928446857115,0.682100660755078,0.919432094519909,0.906020485863771,0.990862420476038,0.999852619685097,0.90162363980251
"64","Cody, WY",-109.0565308,44.5263422,993,8,148,45,36,8,0,32,"destination",0.0080563947633434,0.149043303121853,0.0453172205438066,0.0362537764350453,0.0080563947633434,0,0.0322255790533736,0.991943605236657,0.850956696878147,0.954682779456193,0.963746223564955,0.991943605236657,1,0.967774420946626
"65","College Station/Bryan, TX",-96.3344068,30.627977,1650,43,303,90,106,13,0,105,"destination",0.0260606060606061,0.183636363636364,0.0545454545454545,0.0642424242424242,0.00787878787878788,0,0.0636363636363636,0.973939393939394,0.816363636363636,0.945454545454545,0.935757575757576,0.992121212121212,1,0.936363636363636
"66","Colorado Springs, CO",-104.8213634,38.8338816,9705,107,3051,1014,949,97,2,1047,"destination",0.0110252447192169,0.314374034003091,0.104482225656878,0.0977846470891293,0.00999484801648635,0.00020607934054611,0.107882534775889,0.988974755280783,0.685625965996909,0.895517774343122,0.902215352910871,0.990005151983514,0.999793920659454,0.892117465224111
"67","Columbia, MO",-92.3340724,38.9517053,1339,39,344,117,106,30,0,129,"destination",0.029126213592233,0.256908140403286,0.087378640776699,0.0791635548917102,0.0224047796863331,0,0.0963405526512323,0.970873786407767,0.743091859596714,0.912621359223301,0.92083644510829,0.977595220313667,1,0.903659447348768
"68","Columbia, SC",-81.0348144,34.0007104,4391,84,1339,263,447,67,0,346,"destination",0.0191300387155545,0.304941926668185,0.0598952402641767,0.101799134593487,0.0152584832612161,0,0.0787975404235937,0.980869961284445,0.695058073331815,0.940104759735823,0.898200865406513,0.984741516738784,1,0.921202459576406
"69","Columbus, GA",-84.9877094,32.4609764,848,6,232,70,94,8,0,70,"destination",0.00707547169811321,0.273584905660377,0.0825471698113208,0.110849056603774,0.00943396226415094,0,0.0825471698113208,0.992924528301887,0.726415094339623,0.917452830188679,0.889150943396226,0.990566037735849,1,0.917452830188679
"70","Columbus, MS",-88.4272627,33.4956744,957,13,249,93,68,7,0,114,"destination",0.0135841170323929,0.260188087774295,0.0971786833855799,0.071055381400209,0.00731452455590387,0,0.119122257053292,0.986415882967607,0.739811912225705,0.90282131661442,0.928944618599791,0.992685475444096,1,0.880877742946709
"71","Columbus, OH",-82.9987942,39.9611755,30986,521,11275,2450,3307,311,13,3262,"destination",0.0168140450526044,0.363874007616343,0.0790679661782741,0.106725618021042,0.0100367908087523,0.000419544310333699,0.105273349254502,0.983185954947396,0.636125992383657,0.920932033821726,0.893274381978958,0.989963209191248,0.999580455689666,0.894726650745498
"72","CONCORD, NC",-80.579511,35.4087517,292,2,93,26,27,4,0,22,"destination",0.00684931506849315,0.318493150684932,0.089041095890411,0.0924657534246575,0.0136986301369863,0,0.0753424657534247,0.993150684931507,0.681506849315068,0.910958904109589,0.907534246575342,0.986301369863014,1,0.924657534246575
"73","Cordova, AK",-145.7525414,60.5424087,724,7,147,64,41,4,0,48,"destination",0.00966850828729282,0.203038674033149,0.0883977900552486,0.0566298342541436,0.00552486187845304,0,0.0662983425414365,0.990331491712707,0.796961325966851,0.911602209944751,0.943370165745856,0.994475138121547,1,0.933701657458563
"74","Corpus Christi, TX",-97.396381,27.8005828,3585,142,1104,296,373,49,0,399,"destination",0.0396094839609484,0.307949790794979,0.0825662482566248,0.104044630404463,0.0136680613668061,0,0.111297071129707,0.960390516039052,0.692050209205021,0.917433751743375,0.895955369595537,0.986331938633194,1,0.888702928870293
"75","Dallas, TX",-96.7969879,32.7766642,70157,1071,32253,6704,8513,423,57,9623,"destination",0.0152657610787234,0.459726043017803,0.0955571076300298,0.121342132645353,0.00602933420756304,0.000812463474777998,0.137163789785766,0.984734238921277,0.540273956982197,0.90444289236997,0.878657867354647,0.993970665792437,0.999187536525222,0.862836210214234
"76","Dallas/Fort Worth, TX",-97.0403352,32.8998091,210461,3152,60389,18244,15480,2377,179,16596,"destination",0.014976646504578,0.286936772133554,0.0866858942987062,0.0735528197623313,0.0112942540423166,0.000850513871928766,0.0788554649079877,0.985023353495422,0.713063227866445,0.913314105701294,0.926447180237669,0.988705745957683,0.999149486128071,0.921144535092012
"77","Dayton, OH",-84.1916069,39.7589478,8332,208,2556,808,888,133,4,895,"destination",0.0249639942390783,0.306769083053289,0.0969755160825732,0.106577052328373,0.0159625540086414,0.000480076812289966,0.10741718674988,0.975036005760922,0.693230916946711,0.903024483917427,0.893422947671627,0.984037445991359,0.99951992318771,0.89258281325012
"78","Daytona Beach, FL",-81.0228331,29.2108147,2516,38,858,184,239,63,4,188,"destination",0.0151033386327504,0.341017488076312,0.0731319554848967,0.0949920508744038,0.0250397456279809,0.00158982511923688,0.0747217806041336,0.98489666136725,0.658982511923688,0.926868044515103,0.905007949125596,0.974960254372019,0.998410174880763,0.925278219395866
"79","Deadhorse, AK",-148.4597191,70.2001996,763,5,119,34,31,7,0,18,"destination",0.00655307994757536,0.155963302752294,0.0445609436435125,0.0406290956749672,0.00917431192660551,0,0.0235910878112713,0.993446920052425,0.844036697247706,0.955439056356488,0.959370904325033,0.990825688073395,1,0.976408912188729
"80","Denver, CO",-104.990251,39.7392358,226826,1467,74152,17574,17815,1562,105,19282,"destination",0.00646751254265384,0.326911377002636,0.0774778905416487,0.0785403789689013,0.00688633578161234,0.00046290989569097,0.0850078915115551,0.993532487457346,0.673088622997364,0.922522109458351,0.921459621031099,0.993113664218388,0.999537090104309,0.914992108488445
"81","Des Moines, IA",-93.6091064,41.6005448,10464,128,3224,868,995,115,2,956,"destination",0.0122324159021407,0.308103975535168,0.0829510703363914,0.0950879204892966,0.0109900611620795,0.000191131498470948,0.0913608562691132,0.987767584097859,0.691896024464832,0.917048929663609,0.904912079510703,0.989009938837921,0.999808868501529,0.908639143730887
"82","Detroit, MI",-83.0457538,42.331427,137402,1636,39584,9545,8929,1273,73,11219,"destination",0.0119066680252107,0.288088965226125,0.0694676933377971,0.064984498042241,0.00926478508318656,0.000531287754181162,0.0816509221117597,0.988093331974789,0.711911034773875,0.930532306662203,0.935015501957759,0.990735214916813,0.999468712245819,0.91834907788824
"83","Devils Lake, ND",-98.8651202,48.112779,624,27,139,38,29,3,1,56,"destination",0.0432692307692308,0.22275641025641,0.0608974358974359,0.046474358974359,0.00480769230769231,0.0016025641025641,0.0897435897435897,0.956730769230769,0.77724358974359,0.939102564102564,0.953525641025641,0.995192307692308,0.998397435897436,0.91025641025641
"84","Dillingham, AK",-158.4575,59.0397222,84,0,11,4,5,1,0,0,"destination",0,0.130952380952381,0.0476190476190476,0.0595238095238095,0.0119047619047619,0,0,1,0.869047619047619,0.952380952380952,0.94047619047619,0.988095238095238,1,1
"85","Dothan, AL",-85.3904888,31.2232313,1293,18,352,123,108,8,0,148,"destination",0.0139211136890951,0.272235112142305,0.0951276102088167,0.0835266821345708,0.00618716163959783,0,0.11446249033256,0.986078886310905,0.727764887857695,0.904872389791183,0.916473317865429,0.993812838360402,1,0.88553750966744
"86","Dubuque, IA",-90.6645718,42.5005583,343,20,70,40,19,13,0,35,"destination",0.0583090379008746,0.204081632653061,0.116618075801749,0.0553935860058309,0.0379008746355685,0,0.102040816326531,0.941690962099125,0.795918367346939,0.883381924198251,0.944606413994169,0.962099125364432,1,0.897959183673469
"87","Duluth, MN",-92.1004852,46.7866719,2729,98,759,178,215,32,0,221,"destination",0.0359105899596922,0.278123854891902,0.0652253572737266,0.0787834371564676,0.0117259069256138,0,0.0809820447050202,0.964089410040308,0.721876145108098,0.934774642726273,0.921216562843532,0.988274093074386,1,0.91901795529498
"88","Durango, CO",-107.8800667,37.27528,1926,27,449,153,146,16,1,153,"destination",0.014018691588785,0.233125649013499,0.0794392523364486,0.0758047767393562,0.0083073727933541,0.000519210799584631,0.0794392523364486,0.985981308411215,0.766874350986501,0.920560747663551,0.924195223260644,0.991692627206646,0.999480789200415,0.920560747663551
"89","Eagle, CO",-106.8286507,39.6552634,1795,29,574,239,191,51,1,107,"destination",0.0161559888579387,0.319777158774373,0.133147632311978,0.106406685236769,0.0284122562674095,0.000557103064066852,0.0596100278551532,0.983844011142061,0.680222841225627,0.866852367688022,0.893593314763231,0.97158774373259,0.999442896935933,0.940389972144847
"90","Eau Claire, WI",-91.4984941,44.811349,687,20,169,62,65,6,0,67,"destination",0.0291120815138282,0.245997088791849,0.0902474526928675,0.0946142649199418,0.00873362445414847,0,0.0975254730713246,0.970887918486172,0.754002911208151,0.909752547307132,0.905385735080058,0.991266375545852,1,0.902474526928675
"91","El Paso, TX",-106.4850217,31.7618778,12399,142,5341,852,1571,113,5,1691,"destination",0.0114525364948786,0.430760545205258,0.0687152189692717,0.126703766432777,0.00911363819662876,0.000403258327284458,0.136381966287604,0.988547463505121,0.569239454794741,0.931284781030728,0.873296233567223,0.990886361803371,0.999596741672716,0.863618033712396
"92","Elko, NV",-115.7631232,40.8324211,660,2,60,42,13,8,0,22,"destination",0.00303030303030303,0.0909090909090909,0.0636363636363636,0.0196969696969697,0.0121212121212121,0,0.0333333333333333,0.996969696969697,0.909090909090909,0.936363636363636,0.98030303030303,0.987878787878788,1,0.966666666666667
"93","Elmira/Corning, NY",-76.893638,42.15987,286,0,90,19,32,0,0,21,"destination",0,0.314685314685315,0.0664335664335664,0.111888111888112,0,0,0.0734265734265734,1,0.685314685314685,0.933566433566434,0.888111888111888,1,1,0.926573426573427
"94","Erie, PA",-80.085059,42.1292241,1368,22,370,117,114,12,0,127,"destination",0.0160818713450292,0.27046783625731,0.0855263157894737,0.0833333333333333,0.0087719298245614,0,0.0928362573099415,0.983918128654971,0.72953216374269,0.914473684210526,0.916666666666667,0.991228070175439,1,0.907163742690059
"95","Escanaba, MI",-87.0645801,45.7452466,625,11,145,41,38,10,0,40,"destination",0.0176,0.232,0.0656,0.0608,0.016,0,0.064,0.9824,0.768,0.9344,0.9392,0.984,1,0.936
"96","Eugene, OR",-123.0867536,44.0520691,4146,17,1140,418,334,15,1,421,"destination",0.00410033767486734,0.274963820549928,0.100820067534973,0.0805595754944525,0.00361794500723589,0.000241196333815726,0.101543656536421,0.995899662325133,0.725036179450072,0.899179932465026,0.919440424505548,0.996382054992764,0.999758803666184,0.898456343463579
"97","Evansville, IN",-87.5710898,37.9715592,2681,59,673,206,223,29,0,249,"destination",0.0220067139127191,0.251025736665423,0.0768370011189854,0.0831779186870571,0.010816859380828,0,0.092875792614696,0.977993286087281,0.748974263334577,0.923162998881015,0.916822081312943,0.989183140619172,1,0.907124207385304
"98","Fairbanks, AK",-147.7163888,64.8377778,3604,25,903,316,171,18,9,137,"destination",0.00693673695893452,0.250554938956715,0.0876803551609323,0.0474472807991121,0.00499445061043285,0.00249722530521643,0.0380133185349612,0.993063263041066,0.749445061043285,0.912319644839068,0.952552719200888,0.995005549389567,0.997502774694784,0.961986681465039
"99","Fargo, ND",-96.7898034,46.8771863,4139,60,1005,325,317,50,1,312,"destination",0.0144962551340904,0.242812273496014,0.0785213819763228,0.0765885479584441,0.012080212611742,0.000241604252234839,0.0753805266972699,0.98550374486591,0.757187726503986,0.921478618023677,0.923411452041556,0.987919787388258,0.999758395747765,0.92461947330273
"100","Fayetteville, AR",-94.1718542,36.082156,7512,128,2079,683,652,95,0,637,"destination",0.0170394036208733,0.276757188498403,0.0909211927582535,0.0867944621938232,0.0126464323748669,0,0.0847976570820021,0.982960596379127,0.723242811501597,0.909078807241747,0.913205537806177,0.987353567625133,1,0.915202342917998
"101","Fayetteville, NC",-78.8783585,35.0526641,1937,28,631,162,222,37,2,190,"destination",0.0144553433144037,0.325761486835312,0.0836344863190501,0.114610221992772,0.0191017036654621,0.00103252452245741,0.0980898296334538,0.985544656685596,0.674238513164688,0.91636551368095,0.885389778007228,0.980898296334538,0.998967475477543,0.901910170366546
"102","Flagstaff, AZ",-111.651302,35.1982836,1286,19,257,49,58,2,0,85,"destination",0.0147744945567652,0.199844479004666,0.0381026438569207,0.0451010886469673,0.0015552099533437,0,0.0660964230171073,0.985225505443235,0.800155520995334,0.961897356143079,0.954898911353033,0.998444790046656,1,0.933903576982893
"103","Flint, MI",-83.6874562,43.0125274,4109,80,1391,333,339,58,2,434,"destination",0.0194694572888781,0.338525188610368,0.081041615964955,0.0825018252616208,0.0141153565344366,0.000486736432221952,0.105621805792164,0.980530542711122,0.661474811389632,0.918958384035045,0.917498174738379,0.985884643465563,0.999513263567778,0.894378194207836
"104","Florence, SC",-79.7625625,34.1954331,158,2,61,18,30,2,0,20,"destination",0.0126582278481013,0.386075949367089,0.113924050632911,0.189873417721519,0.0126582278481013,0,0.126582278481013,0.987341772151899,0.613924050632911,0.886075949367089,0.810126582278481,0.987341772151899,1,0.873417721518987
"105","Fort Lauderdale, FL",-80.1373174,26.1224386,88764,2118,34140,10212,10824,728,89,8739,"destination",0.0238610247397594,0.384615384615385,0.115046640529945,0.121941327565229,0.00820152314001172,0.00100265873552341,0.0984520751656077,0.976138975260241,0.615384615384615,0.884953359470055,0.878058672434771,0.991798476859988,0.998997341264477,0.901547924834392
"106","Fort Myers, FL",-81.8723084,26.640628,31205,586,10671,3227,3367,330,11,2555,"destination",0.0187790418202211,0.341964428777439,0.10341291459702,0.107899375100144,0.0105752283287935,0.000352507610959782,0.0818779041820221,0.981220958179779,0.658035571222561,0.89658708540298,0.892100624899856,0.989424771671207,0.99964749238904,0.918122095817978
"107","Fort Smith, AR",-94.3985475,35.3859242,1383,21,335,96,129,10,0,125,"destination",0.0151843817787419,0.242227042660882,0.06941431670282,0.0932754880694143,0.00723065798987708,0,0.0903832248734635,0.984815618221258,0.757772957339118,0.93058568329718,0.906724511930586,0.992769342010123,1,0.909616775126536
"108","Fort Wayne, IN",-85.1393513,41.079273,6144,90,1914,665,587,84,2,878,"destination",0.0146484375,0.3115234375,0.108235677083333,0.0955403645833333,0.013671875,0.000325520833333333,0.142903645833333,0.9853515625,0.6884765625,0.891764322916667,0.904459635416667,0.986328125,0.999674479166667,0.857096354166667
"109","Fresno, CA",-119.7871247,36.7377981,8842,43,2094,619,602,33,0,794,"destination",0.00486315313277539,0.236824247907713,0.070006785795069,0.0680841438588555,0.0037321872879439,0,0.08979868807962,0.995136846867225,0.763175752092287,0.929993214204931,0.931915856141145,0.996267812712056,1,0.91020131192038
"110","Gainesville, FL",-82.3248262,29.6516344,2157,27,664,195,238,30,0,214,"destination",0.0125173852573018,0.307834955957348,0.0904033379694019,0.110338433008809,0.0139082058414465,0,0.0992118683356514,0.987482614742698,0.692165044042652,0.909596662030598,0.889661566991191,0.986091794158554,1,0.900788131664349
"111","Garden City, KS",-100.8726618,37.9716898,240,5,42,16,12,11,0,19,"destination",0.0208333333333333,0.175,0.0666666666666667,0.05,0.0458333333333333,0,0.0791666666666667,0.979166666666667,0.825,0.933333333333333,0.95,0.954166666666667,1,0.920833333333333
"112","Gillette, WY",-105.5022205,44.2910915,976,13,203,80,64,9,0,83,"destination",0.0133196721311475,0.207991803278689,0.0819672131147541,0.0655737704918033,0.00922131147540984,0,0.0850409836065574,0.986680327868853,0.792008196721312,0.918032786885246,0.934426229508197,0.99077868852459,1,0.914959016393443
"113","Grand Forks, ND",-97.0328547,47.9252568,1567,25,328,100,100,11,0,95,"destination",0.0159540523292916,0.209317166560306,0.0638162093171666,0.0638162093171666,0.00701978302488832,0,0.0606253988513082,0.984045947670708,0.790682833439694,0.936183790682833,0.936183790682833,0.992980216975112,1,0.939374601148692
"114","Grand Island, NE",-98.3420118,40.9263957,533,11,150,58,54,9,0,58,"destination",0.0206378986866792,0.281425891181989,0.108818011257036,0.101313320825516,0.0168855534709193,0,0.108818011257036,0.979362101313321,0.718574108818011,0.891181988742964,0.898686679174484,0.983114446529081,1,0.891181988742964
"115","Grand Junction, CO",-108.5506486,39.0638705,2874,6,495,140,123,13,0,135,"destination",0.00208768267223382,0.17223382045929,0.0487125956854558,0.0427974947807933,0.00452331245650661,0,0.046972860125261,0.997912317327766,0.82776617954071,0.951287404314544,0.957202505219207,0.995476687543493,1,0.953027139874739
"116","Grand Rapids, MI",-85.6680863,42.9633599,12658,206,4102,1072,1285,168,3,1222,"destination",0.0162742929372729,0.324063833148997,0.0846895244114394,0.101516827302891,0.0132722389003002,0.000237004266076789,0.0965397377152789,0.983725707062727,0.675936166851003,0.915310475588561,0.898483172697109,0.9867277610997,0.999762995733923,0.903460262284721
"117","Great Falls, MT",-111.3007715,47.5052849,1636,6,330,80,97,8,0,74,"destination",0.00366748166259169,0.201711491442543,0.0488997555012225,0.0592909535452323,0.00488997555012225,0,0.0452322738386308,0.996332518337408,0.798288508557457,0.951100244498778,0.940709046454768,0.995110024449878,1,0.954767726161369
"118","Green Bay, WI",-88.0132958,44.5133188,4425,92,1134,387,323,42,0,418,"destination",0.0207909604519774,0.256271186440678,0.0874576271186441,0.0729943502824859,0.00949152542372881,0,0.0944632768361582,0.979209039548023,0.743728813559322,0.912542372881356,0.927005649717514,0.990508474576271,1,0.905536723163842
"119","Greensboro/High Point, NC",-79.8296743,36.0899873,7853,190,2533,742,839,133,1,770,"destination",0.0241945753215332,0.322551890997071,0.0944861836240927,0.106838151025086,0.0169362027250732,0.000127339870113332,0.098051699987266,0.975805424678467,0.677448109002929,0.905513816375907,0.893161848974914,0.983063797274927,0.999872660129887,0.901948300012734
"120","Greenville, NC",-77.3663538,35.612661,100,3,33,15,18,2,0,13,"destination",0.03,0.33,0.15,0.18,0.02,0,0.13,0.97,0.67,0.85,0.82,0.98,1,0.87
"121","Greer, SC",-82.2270568,34.9387279,8201,120,2789,607,896,123,3,834,"destination",0.0146323619070845,0.340080477990489,0.0740153639800024,0.109254968906231,0.0149981709547616,0.000365809047677113,0.101694915254237,0.985367638092915,0.659919522009511,0.925984636019998,0.890745031093769,0.985001829045238,0.999634190952323,0.898305084745763
"122","Gulfport/Biloxi, MS",-89.0928155,30.3674198,2893,59,692,224,231,44,3,169,"destination",0.0203940546145869,0.239198064293121,0.0774282751469063,0.0798479087452472,0.0152091254752852,0.00103698582786035,0.0584168683027999,0.979605945385413,0.760801935706879,0.922571724853094,0.920152091254753,0.984790874524715,0.99896301417214,0.9415831316972
"123","Gunnison, CO",-106.9253207,38.5458246,183,1,44,17,22,2,0,7,"destination",0.00546448087431694,0.240437158469945,0.092896174863388,0.120218579234973,0.0109289617486339,0,0.0382513661202186,0.994535519125683,0.759562841530055,0.907103825136612,0.879781420765027,0.989071038251366,1,0.961748633879781
"124","Gustavus, AK",-135.7369443,58.4133333,84,4,18,3,4,1,0,3,"destination",0.0476190476190476,0.214285714285714,0.0357142857142857,0.0476190476190476,0.0119047619047619,0,0.0357142857142857,0.952380952380952,0.785714285714286,0.964285714285714,0.952380952380952,0.988095238095238,1,0.964285714285714
"125","Hagerstown, MD",-77.7199932,39.6417629,35,0,15,4,10,0,0,5,"destination",0,0.428571428571429,0.114285714285714,0.285714285714286,0,0,0.142857142857143,1,0.571428571428571,0.885714285714286,0.714285714285714,1,1,0.857142857142857
"126","Hancock/Houghton, MI",-88.5809563,47.1268714,728,37,187,67,52,6,1,75,"destination",0.0508241758241758,0.256868131868132,0.092032967032967,0.0714285714285714,0.00824175824175824,0.00137362637362637,0.103021978021978,0.949175824175824,0.743131868131868,0.907967032967033,0.928571428571429,0.991758241758242,0.998626373626374,0.896978021978022
"127","Harlingen/San Benito, TX",-97.6311006,26.132576,2826,82,1255,185,345,17,1,442,"destination",0.0290162774239207,0.444090587402689,0.0654635527246992,0.12208067940552,0.00601556970983723,0.000353857041755131,0.156404812455768,0.970983722576079,0.555909412597311,0.934536447275301,0.87791932059448,0.993984430290163,0.999646142958245,0.843595187544232
"128","Harrisburg, PA",-76.8867008,40.2731911,4262,93,1092,315,341,66,0,278,"destination",0.0218207414359456,0.256217738151103,0.0739089629282027,0.0800093852651337,0.015485687470671,0,0.0652275926794932,0.978179258564054,0.743782261848897,0.926091037071797,0.919990614734866,0.984514312529329,1,0.934772407320507
"129","Hartford, CT",-72.6733723,41.7658043,23969,570,8777,1767,2803,273,13,2350,"destination",0.0237807167591472,0.36618131753515,0.0737202219533564,0.116942717676999,0.01138971171096,0.000542367224331428,0.0980433059368351,0.976219283240853,0.63381868246485,0.926279778046644,0.883057282323001,0.98861028828904,0.999457632775669,0.901956694063165
"130","Hattiesburg/Laurel, MS",-89.335421,31.468239,722,23,239,103,49,4,0,164,"destination",0.0318559556786704,0.331024930747922,0.142659279778393,0.0678670360110803,0.00554016620498615,0,0.227146814404432,0.96814404432133,0.668975069252078,0.857340720221607,0.93213296398892,0.994459833795014,1,0.772853185595568
"131","Hayden, CO",-107.2636842,40.4894302,1130,10,331,138,106,28,0,85,"destination",0.00884955752212389,0.292920353982301,0.12212389380531,0.0938053097345133,0.0247787610619469,0,0.0752212389380531,0.991150442477876,0.707079646017699,0.87787610619469,0.906194690265487,0.975221238938053,1,0.924778761061947
"132","Hays, KS",-99.3267702,38.8791783,663,11,139,61,45,4,0,66,"destination",0.0165912518853695,0.209653092006033,0.0920060331825038,0.0678733031674208,0.00603318250377074,0,0.0995475113122172,0.98340874811463,0.790346907993967,0.907993966817496,0.932126696832579,0.993966817496229,1,0.900452488687783
"133","Helena, MT",-112.0391057,46.5891452,1667,7,356,101,92,10,0,93,"destination",0.00419916016796641,0.213557288542292,0.0605878824235153,0.0551889622075585,0.00599880023995201,0,0.0557888422315537,0.995800839832034,0.786442711457708,0.939412117576485,0.944811037792441,0.994001199760048,1,0.944211157768446
"134","Hibbing, MN",-92.9376887,47.4271546,623,10,81,22,21,7,0,23,"destination",0.0160513643659711,0.130016051364366,0.0353130016051364,0.0337078651685393,0.0112359550561798,0,0.0369181380417336,0.983948635634029,0.869983948635634,0.964686998394864,0.966292134831461,0.98876404494382,1,0.963081861958266
"135","Hilo, HI",-155.0868193,19.7241106,6573,11,1648,61,505,42,1,336,"destination",0.00167351285562148,0.250722653278564,0.00928038947208276,0.0768294538262589,0.00638977635782748,0.000152137532329226,0.0511182108626198,0.998326487144379,0.749277346721436,0.990719610527917,0.923170546173741,0.993610223642173,0.999847862467671,0.94888178913738
"136","Hobbs, NM",-103.1360403,32.7026116,659,19,94,34,26,5,0,19,"destination",0.0288315629742033,0.142640364188164,0.0515933232169954,0.039453717754173,0.00758725341426404,0,0.0288315629742033,0.971168437025797,0.857359635811836,0.948406676783005,0.960546282245827,0.992412746585736,1,0.971168437025797
"137","Honolulu, HI",-157.8583333,21.3069444,48152,165,15448,1280,4005,425,19,3037,"destination",0.00342664894500748,0.320817411530155,0.0265824887855125,0.0831741153015451,0.00882621697956471,0.000394583817909952,0.0630711081575012,0.996573351054993,0.679182588469845,0.973417511214487,0.916825884698455,0.991173783020435,0.99960541618209,0.936928891842499
"138","Houston, TX",-95.3698028,29.7604267,196851,6241,56477,17098,14269,1618,70,14977,"destination",0.0317041823511184,0.286902276340989,0.0868575724786768,0.072486296742206,0.00821941468420277,0.000355598904755373,0.0760829256645889,0.968295817648882,0.713097723659011,0.913142427521323,0.927513703257794,0.991780585315797,0.999644401095245,0.923917074335411
"139","Huntsville, AL",-86.5861037,34.7303688,5397,108,1468,342,463,93,3,387,"destination",0.0200111172873819,0.272002964609968,0.0633685380767093,0.0857884009634982,0.0172317954419122,0.000555864369093941,0.0717065036131184,0.979988882712618,0.727997035390032,0.936631461923291,0.914211599036502,0.982768204558088,0.999444135630906,0.928293496386882
"140","Hyannis, MA",-70.2881124,41.6524911,94,1,28,8,17,0,0,12,"destination",0.0106382978723404,0.297872340425532,0.0851063829787234,0.180851063829787,0,0,0.127659574468085,0.98936170212766,0.702127659574468,0.914893617021277,0.819148936170213,1,1,0.872340425531915
"141","Idaho Falls, ID",-112.0407584,43.4926607,2455,6,514,151,151,20,0,141,"destination",0.00244399185336049,0.209368635437882,0.0615071283095723,0.0615071283095723,0.00814663951120163,0,0.0574338085539715,0.997556008146639,0.790631364562118,0.938492871690428,0.938492871690428,0.991853360488798,1,0.942566191446028
"142","Indianapolis, IN",-86.158068,39.768403,34036,485,12246,2575,3588,318,15,3565,"destination",0.0142496180514749,0.359795510635797,0.0756551886238101,0.105417792925138,0.00934304853684334,0.000440709836643554,0.104742037842285,0.985750381948525,0.640204489364203,0.92434481137619,0.894582207074862,0.990656951463157,0.999559290163356,0.895257962157715
"143","International Falls, MN",-93.4040679,48.6023149,625,11,108,27,25,6,0,29,"destination",0.0176,0.1728,0.0432,0.04,0.0096,0,0.0464,0.9824,0.8272,0.9568,0.96,0.9904,1,0.9536
"144","Iron Mountain/Kingsfd, MI",-88.0720706,45.7949561,676,7,134,37,41,6,0,46,"destination",0.0103550295857988,0.198224852071006,0.0547337278106509,0.0606508875739645,0.00887573964497041,0,0.0680473372781065,0.989644970414201,0.801775147928994,0.945266272189349,0.939349112426035,0.99112426035503,1,0.931952662721893
"145","Islip, NY",-73.2103934,40.7298207,5924,186,2545,378,685,45,3,747,"destination",0.0313977042538825,0.429608372721134,0.0638082376772451,0.115631330182309,0.00759621877110061,0.000506414584740041,0.12609723160027,0.968602295746117,0.570391627278866,0.936191762322755,0.884368669817691,0.992403781228899,0.99949358541526,0.87390276839973
"146","Ithaca/Cortland, NY",-76.5002026,42.4383677,1004,8,253,67,74,16,1,81,"destination",0.00796812749003984,0.25199203187251,0.0667330677290837,0.0737051792828685,0.0159362549800797,0.00099601593625498,0.0806772908366534,0.99203187250996,0.74800796812749,0.933266932270916,0.926294820717131,0.98406374501992,0.999003984063745,0.919322709163347
"147","Jackson, WY",-110.7624282,43.4799291,3726,16,1093,319,336,56,0,269,"destination",0.00429414922168545,0.293344068706388,0.0856146001073537,0.0901771336553945,0.0150295222758991,0,0.0721953837895867,0.995705850778315,0.706655931293612,0.914385399892646,0.909822866344606,0.984970477724101,1,0.927804616210413
"148","Jackson/Vicksburg, MS",-90.8745758,32.3522304,5489,116,1412,382,439,93,2,344,"destination",0.0211331754417927,0.257241756239752,0.0695937329203862,0.0799781380943706,0.0169429768628165,0.000364365093824012,0.06267079613773,0.978866824558207,0.742758243760248,0.930406267079614,0.920021861905629,0.983057023137183,0.999635634906176,0.93732920386227
"149","Jacksonville, FL",-81.655651,30.3321838,20777,462,7512,1844,2622,277,8,2090,"destination",0.0222361264860182,0.361553641045387,0.0887519853684362,0.12619723732974,0.0133320498628291,0.000385041151273042,0.100592000770082,0.977763873513982,0.638446358954613,0.911248014631564,0.87380276267026,0.986667950137171,0.999614958848727,0.899407999229918
"150","Jacksonville/Camp Lejeune, NC",-77.4013403,34.6250544,1472,37,521,150,233,17,5,136,"destination",0.0251358695652174,0.353940217391304,0.101902173913043,0.158288043478261,0.0115489130434783,0.00339673913043478,0.0923913043478261,0.974864130434783,0.646059782608696,0.898097826086957,0.841711956521739,0.988451086956522,0.996603260869565,0.907608695652174
"151","Jamestown, ND",-98.7084357,46.9105438,987,23,183,61,52,7,1,55,"destination",0.0233029381965552,0.185410334346505,0.0618034447821682,0.0526849037487335,0.00709219858156028,0.00101317122593718,0.0557244174265451,0.976697061803445,0.814589665653495,0.938196555217832,0.947315096251266,0.99290780141844,0.998986828774063,0.944275582573455
"152","Joplin, MO",-94.513281,37.0842271,466,12,103,40,30,11,0,46,"destination",0.0257510729613734,0.221030042918455,0.0858369098712446,0.0643776824034335,0.0236051502145923,0,0.0987124463519313,0.974248927038627,0.778969957081545,0.914163090128755,0.935622317596567,0.976394849785408,1,0.901287553648069
"153","Juneau, AK",-134.4197221,58.3019444,4429,39,902,319,193,24,10,201,"destination",0.00880559945811696,0.203657710544141,0.0720252878753669,0.0435764280876044,0.00541883043576428,0.00225784601490178,0.0453827048995259,0.991194400541883,0.796342289455859,0.927974712124633,0.956423571912396,0.994581169564236,0.997742153985098,0.954617295100474
"154","Kahului, HI",-156.4729469,20.8893351,24609,62,6615,880,1967,118,8,994,"destination",0.0025194034702751,0.268804096062416,0.0357592750619692,0.0799301068714698,0.00479499370149132,0.000325084318745175,0.0403917266040879,0.997480596529725,0.731195903937584,0.964240724938031,0.92006989312853,0.995205006298509,0.999674915681255,0.959608273395912
"155","Kalamazoo, MI",-85.5872286,42.2917069,2341,53,612,194,190,38,0,220,"destination",0.0226398974797095,0.261426740709099,0.0828705681332764,0.0811618966253738,0.0162323793250748,0,0.0939769329346433,0.97736010252029,0.738573259290901,0.917129431866724,0.918838103374626,0.983767620674925,1,0.906023067065357
"156","Kalispell, MT",-114.316813,48.1919889,2368,7,606,172,174,17,0,148,"destination",0.00295608108108108,0.255912162162162,0.0726351351351351,0.0734797297297297,0.00717905405405405,0,0.0625,0.997043918918919,0.744087837837838,0.927364864864865,0.92652027027027,0.992820945945946,1,0.9375
"157","Kansas City, MO",-94.5785667,39.0997265,48343,588,18618,3241,5118,370,25,5159,"destination",0.0121630846244544,0.385122975404919,0.0670417640609809,0.105868481476119,0.00765364168545601,0.000517137951720001,0.106716587716939,0.987836915375546,0.614877024595081,0.932958235939019,0.894131518523881,0.992346358314544,0.99948286204828,0.893283412283061
"158","Ketchikan, AK",-131.6461112,55.3422222,2426,14,584,271,166,12,5,103,"destination",0.00577081615828524,0.240725474031327,0.111706512778236,0.0684253915910965,0.00494641384995878,0.00206100577081616,0.0424567188788129,0.994229183841715,0.759274525968673,0.888293487221764,0.931574608408904,0.995053586150041,0.997938994229184,0.957543281121187
"159","Key West, FL",-81.7799871,24.5550593,2818,83,590,186,199,27,0,125,"destination",0.0294535131298793,0.209368346344925,0.0660042583392477,0.0706174591909155,0.00958126330731015,0,0.0443577004968062,0.970546486870121,0.790631653655074,0.933995741660752,0.929382540809084,0.99041873669269,1,0.955642299503194
"160","Killeen, TX",-97.7277959,31.1171194,1865,59,473,143,185,19,0,126,"destination",0.0316353887399464,0.253619302949062,0.0766756032171582,0.0991957104557641,0.0101876675603217,0,0.0675603217158177,0.968364611260054,0.746380697050938,0.923324396782842,0.900804289544236,0.989812332439678,1,0.932439678284182
"161","King Salmon, AK",-156.661351,58.6883251,63,0,16,2,2,0,0,2,"destination",0,0.253968253968254,0.0317460317460317,0.0317460317460317,0,0,0.0317460317460317,1,0.746031746031746,0.968253968253968,0.968253968253968,1,1,0.968253968253968
"162","Knoxville, TN",-83.9207392,35.9606384,9190,173,2769,958,1016,132,2,920,"destination",0.0188248095756257,0.301305767138194,0.104243743199129,0.110554951033732,0.0143634385201306,0.000217627856365615,0.100108813928183,0.981175190424374,0.698694232861806,0.895756256800871,0.889445048966268,0.985636561479869,0.999782372143634,0.899891186071817
"163","Kodiak, AK",-152.4072221,57.79,645,29,100,49,34,17,0,17,"destination",0.0449612403100775,0.155038759689922,0.075968992248062,0.0527131782945736,0.0263565891472868,0,0.0263565891472868,0.955038759689922,0.844961240310077,0.924031007751938,0.947286821705426,0.973643410852713,1,0.973643410852713
"164","Kona, HI",-155.9969261,19.639994,13792,20,3643,474,963,73,5,596,"destination",0.00145011600928074,0.264138631090487,0.0343677494199536,0.0698230858468677,0.00529292343387471,0.000362529002320186,0.0432134570765661,0.998549883990719,0.735861368909513,0.965632250580046,0.930176914153132,0.994707076566125,0.99963747099768,0.956786542923434
"165","Kotzebue, AK",-162.5966666,66.8983333,720,30,118,31,19,6,2,17,"destination",0.0416666666666667,0.163888888888889,0.0430555555555556,0.0263888888888889,0.00833333333333333,0.00277777777777778,0.0236111111111111,0.958333333333333,0.836111111111111,0.956944444444444,0.973611111111111,0.991666666666667,0.997222222222222,0.976388888888889
"166","La Crosse, WI",-91.2519017,43.8137751,2096,33,526,255,151,28,1,232,"destination",0.0157442748091603,0.250954198473282,0.121660305343511,0.0720419847328244,0.0133587786259542,0.000477099236641221,0.110687022900763,0.98425572519084,0.749045801526718,0.878339694656489,0.927958015267176,0.986641221374046,0.999522900763359,0.889312977099237
"167","Lafayette, LA",-92.0198427,30.2240897,2987,75,603,191,197,32,0,172,"destination",0.0251088048208905,0.20187479075996,0.0639437562772012,0.0659524606628724,0.0107130900569133,0,0.0575828590559089,0.974891195179109,0.79812520924004,0.936056243722799,0.934047539337128,0.989286909943087,1,0.942417140944091
"168","Lake Charles, LA",-93.2173758,30.2265949,1283,48,211,103,72,17,0,61,"destination",0.0374123148869836,0.164458300857366,0.0802805923616524,0.0561184723304754,0.0132501948558067,0,0.0475448168355417,0.962587685113016,0.835541699142634,0.919719407638348,0.943881527669525,0.986749805144193,1,0.952455183164458
"169","Lansing, MI",-84.5555347,42.732535,2573,40,611,185,174,32,0,221,"destination",0.0155460551884959,0.237465993004275,0.0719005052467936,0.0676253400699573,0.0124368441507967,0,0.08589195491644,0.984453944811504,0.762534006995725,0.928099494753206,0.932374659930043,0.987563155849203,1,0.91410804508356
"170","Laramie, WY",-105.5911007,41.3113669,624,8,124,49,43,5,0,45,"destination",0.0128205128205128,0.198717948717949,0.078525641025641,0.0689102564102564,0.00801282051282051,0,0.0721153846153846,0.987179487179487,0.801282051282051,0.921474358974359,0.931089743589744,0.99198717948718,1,0.927884615384615
"171","Laredo, TX",-99.4803241,27.5305671,1961,64,346,155,120,24,0,105,"destination",0.0326364099949006,0.176440591534931,0.0790413054563998,0.0611932687404386,0.0122386537480877,0,0.0535441101478837,0.967363590005099,0.823559408465069,0.9209586945436,0.938806731259561,0.987761346251912,1,0.946455889852116
"172","Las Vegas, NV",-115.1398296,36.1699412,155120,1208,60621,13891,15215,1004,131,16542,"destination",0.00778751933986591,0.390800670448685,0.0895500257864879,0.098085353274884,0.00647240845796802,0.000844507478081485,0.10664002062919,0.992212480660134,0.609199329551315,0.910449974213512,0.901914646725116,0.993527591542032,0.999155492521918,0.89335997937081
"173","Latrobe, PA",-79.3794811,40.3211808,1055,21,296,143,70,14,5,66,"destination",0.0199052132701422,0.280568720379147,0.135545023696682,0.0663507109004739,0.0132701421800948,0.004739336492891,0.0625592417061611,0.980094786729858,0.719431279620853,0.864454976303318,0.933649289099526,0.986729857819905,0.995260663507109,0.937440758293839
"174","Lawton/Fort Sill, OK",-98.4184224,34.5938359,947,26,221,63,103,8,0,76,"destination",0.027455121436114,0.233368532206969,0.0665258711721225,0.108764519535375,0.00844772967265047,0,0.0802534318901795,0.972544878563886,0.766631467793031,0.933474128827878,0.891235480464625,0.991552270327349,1,0.91974656810982
"175","Lewisburg, WV",-80.4456303,37.8017879,58,0,11,8,2,1,0,2,"destination",0,0.189655172413793,0.137931034482759,0.0344827586206897,0.0172413793103448,0,0.0344827586206897,1,0.810344827586207,0.862068965517241,0.96551724137931,0.982758620689655,1,0.96551724137931
"176","Lewiston, ID",-117.001189,46.4004089,759,1,65,17,20,4,0,10,"destination",0.00131752305665349,0.0856389986824769,0.0223978919631094,0.0263504611330698,0.00527009222661397,0,0.0131752305665349,0.998682476943347,0.914361001317523,0.977602108036891,0.97364953886693,0.994729907773386,1,0.986824769433465
"177","Lexington, KY",-84.5037164,38.0405837,6359,128,1702,452,563,72,4,527,"destination",0.0201289510929391,0.267652146563925,0.0710803585469413,0.0885359333228495,0.0113225349897783,0.000629029721654348,0.0828746658279604,0.979871048907061,0.732347853436075,0.928919641453059,0.911464066677151,0.988677465010222,0.999370970278346,0.91712533417204
"178","Liberal, KS",-100.920999,37.0430812,144,1,35,15,6,1,0,16,"destination",0.00694444444444444,0.243055555555556,0.104166666666667,0.0416666666666667,0.00694444444444444,0,0.111111111111111,0.993055555555556,0.756944444444444,0.895833333333333,0.958333333333333,0.993055555555556,1,0.888888888888889
"179","Lihue, HI",-159.3711111,21.9811111,13103,38,3423,360,1051,69,8,563,"destination",0.00290009921392048,0.261237884453942,0.0274746241318782,0.0802106387850111,0.00526596962527665,0.000610547202930627,0.0429672594062428,0.99709990078608,0.738762115546058,0.972525375868122,0.919789361214989,0.994734030374723,0.999389452797069,0.957032740593757
"180","Lincoln, NE",-96.7025955,40.813616,2525,25,622,232,216,19,1,191,"destination",0.0099009900990099,0.246336633663366,0.0918811881188119,0.0855445544554456,0.00752475247524752,0.000396039603960396,0.0756435643564356,0.99009900990099,0.753663366336634,0.908118811881188,0.914455445544554,0.992475247524752,0.99960396039604,0.924356435643564
"181","Little Rock, AR",-92.2895948,34.7464809,9298,103,3208,704,982,131,4,911,"destination",0.0110776511077651,0.345020434502043,0.0757152075715208,0.105614110561411,0.0140890514089051,0.000430200043020004,0.097978059797806,0.988922348892235,0.654979565497957,0.924284792428479,0.894385889438589,0.985910948591095,0.99956979995698,0.902021940202194
"182","Long Beach, CA",-118.1937395,33.7700504,17013,121,6387,1392,2355,88,9,2382,"destination",0.00711220831129137,0.375418797390231,0.0818197848703932,0.138423558455299,0.00517251513548463,0.000529007229765473,0.140010580144595,0.992887791688709,0.624581202609769,0.918180215129607,0.861576441544701,0.994827484864515,0.999470992770235,0.859989419855405
"183","Longview, TX",-94.7404891,32.5007037,223,13,30,16,10,6,0,13,"destination",0.0582959641255605,0.134529147982063,0.0717488789237668,0.0448430493273543,0.0269058295964126,0,0.0582959641255605,0.94170403587444,0.865470852017937,0.928251121076233,0.955156950672646,0.973094170403587,1,0.94170403587444
"184","Los Angeles, CA",-118.2436849,34.0522342,216659,2039,78747,27803,19116,1738,165,19092,"destination",0.0094111022390023,0.363460553219575,0.128326079230496,0.0882308143211221,0.00802182231063561,0.000761565409237558,0.0881200411706876,0.990588897760998,0.636539446780425,0.871673920769504,0.911769185678878,0.991978177689364,0.999238434590762,0.911879958829312
"185","Louisville, KY",-85.7584557,38.2526647,13470,242,4712,1058,1334,176,6,1287,"destination",0.0179658500371195,0.34981440237565,0.0785449146250928,0.0990348923533779,0.0130660727542687,0.00044543429844098,0.0955456570155902,0.982034149962881,0.65018559762435,0.921455085374907,0.900965107646622,0.986933927245731,0.999554565701559,0.90445434298441
"186","Lubbock, TX",-101.8551665,33.5778631,4857,68,1822,347,519,36,1,608,"destination",0.014000411776817,0.375128680255302,0.071443277743463,0.106856084002471,0.00741198270537369,0.000205888408482602,0.125180152357422,0.985999588223183,0.624871319744698,0.928556722256537,0.893143915997529,0.992588017294626,0.999794111591517,0.874819847642578
"187","Lynchburg, VA",-79.1422464,37.4137536,304,12,104,33,44,6,0,28,"destination",0.0394736842105263,0.342105263157895,0.108552631578947,0.144736842105263,0.0197368421052632,0,0.0921052631578947,0.960526315789474,0.657894736842105,0.891447368421053,0.855263157894737,0.980263157894737,1,0.907894736842105
"188","Madison, WI",-89.4012302,43.0730517,10003,142,2728,839,819,104,0,868,"destination",0.0141957412776167,0.272718184544637,0.0838748375487354,0.0818754373687894,0.0103968809357193,0,0.0867739678096571,0.985804258722383,0.727281815455363,0.916125162451265,0.918124562631211,0.989603119064281,1,0.913226032190343
"189","Mammoth Lakes, CA",-118.972079,37.648546,104,13,43,11,11,1,0,18,"destination",0.125,0.413461538461538,0.105769230769231,0.105769230769231,0.00961538461538462,0,0.173076923076923,0.875,0.586538461538462,0.894230769230769,0.894230769230769,0.990384615384615,1,0.826923076923077
"190","Manchester, NH",-71.4547891,42.9956397,7737,251,3015,460,847,57,0,930,"destination",0.0324415147990177,0.389685924777045,0.0594545689543751,0.109473956313817,0.00736719658782474,0,0.120201628538193,0.967558485200982,0.610314075222955,0.940545431045625,0.890526043686183,0.992632803412175,1,0.879798371461807
"191","Manhattan/Ft. Riley, KS",-96.5716694,39.1836082,1436,21,390,166,145,30,0,164,"destination",0.0146239554317549,0.271587743732591,0.115598885793872,0.100974930362117,0.020891364902507,0,0.114206128133705,0.985376044568245,0.728412256267409,0.884401114206128,0.899025069637883,0.979108635097493,1,0.885793871866295
"192","Marquette, MI",-87.3955954,46.5475825,1010,35,229,86,58,18,0,78,"destination",0.0346534653465347,0.226732673267327,0.0851485148514852,0.0574257425742574,0.0178217821782178,0,0.0772277227722772,0.965346534653465,0.773267326732673,0.914851485148515,0.942574257425743,0.982178217821782,1,0.922772277227723
"193","Martha's Vineyard, MA",-70.645473,41.3804981,241,3,81,20,40,3,0,23,"destination",0.012448132780083,0.336099585062241,0.0829875518672199,0.16597510373444,0.012448132780083,0,0.0954356846473029,0.987551867219917,0.663900414937759,0.91701244813278,0.83402489626556,0.987551867219917,1,0.904564315352697
"194","Medford, OR",-122.8755949,42.3265152,3855,43,1042,380,301,26,0,405,"destination",0.0111543450064851,0.27029831387808,0.0985732814526589,0.0780804150453956,0.00674448767833982,0,0.105058365758755,0.988845654993515,0.72970168612192,0.901426718547341,0.921919584954604,0.99325551232166,1,0.894941634241245
"195","Melbourne, FL",-80.6081089,28.0836269,1872,22,506,107,165,31,2,112,"destination",0.0117521367521368,0.270299145299145,0.0571581196581197,0.0881410256410256,0.0165598290598291,0.00106837606837607,0.0598290598290598,0.988247863247863,0.729700854700855,0.94284188034188,0.911858974358974,0.983440170940171,0.998931623931624,0.94017094017094
"196","Memphis, TN",-90.0489801,35.1495343,17064,272,6147,1379,1862,231,7,1642,"destination",0.0159399906235349,0.360232067510549,0.0808134083450539,0.109118612283169,0.0135372714486639,0.000410220346929208,0.0962259728082513,0.984060009376465,0.639767932489451,0.919186591654946,0.890881387716831,0.986462728551336,0.999589779653071,0.903774027191749
"197","Meridian, MS",-88.703656,32.3643098,1087,27,396,150,124,12,2,173,"destination",0.0248390064397424,0.364305427782889,0.137994480220791,0.114075436982521,0.0110395584176633,0.00183992640294388,0.159153633854646,0.975160993560258,0.635694572217111,0.862005519779209,0.885924563017479,0.988960441582337,0.998160073597056,0.840846366145354
"198","Miami, FL",-80.1917902,25.7616798,71263,1645,23069,6986,6822,792,41,5025,"destination",0.0230835075705485,0.323716374556221,0.0980312364059891,0.0957299019126335,0.0111137616996197,0.0005753336233389,0.0705134501775115,0.976916492429451,0.676283625443779,0.901968763594011,0.904270098087366,0.98888623830038,0.999424666376661,0.929486549822489
"199","Midland/Odessa, TX",-102.3676431,31.8456816,6386,112,2211,491,627,57,4,706,"destination",0.0175383651738177,0.346226119636705,0.0768869401816474,0.0981835264641403,0.00892577513310366,0.000626370184779205,0.11055433761353,0.982461634826182,0.653773880363295,0.923113059818353,0.90181647353586,0.991074224866896,0.999373629815221,0.88944566238647
"200","Milwaukee, WI",-87.9064736,43.0389025,30948,441,11229,2383,3155,236,16,3360,"destination",0.0142497091896084,0.362834431950368,0.0770001292490629,0.101945198397312,0.00762569471371333,0.000516996251777175,0.108569212873207,0.985750290810392,0.637165568049632,0.922999870750937,0.898054801602688,0.992374305286287,0.999483003748223,0.891430787126793
"201","Minneapolis, MN",-93.2650108,44.977753,143219,1646,38892,9893,8809,1301,61,9787,"destination",0.0114928885133956,0.271556148276416,0.0690760304149589,0.0615072022566838,0.00908399025268994,0.000425921141747952,0.0683359051522494,0.988507111486604,0.728443851723584,0.930923969585041,0.938492797743316,0.99091600974731,0.999574078858252,0.931664094847751
"202","Minot, ND",-101.2922906,48.2329668,1956,33,449,154,121,13,0,131,"destination",0.0168711656441718,0.229550102249489,0.0787321063394683,0.0618609406952965,0.00664621676891616,0,0.0669734151329243,0.983128834355828,0.770449897750511,0.921267893660532,0.938139059304703,0.993353783231084,1,0.933026584867076
"203","Mission/McAllen/Edinburg, TX",-98.3252932,26.2159066,2816,71,713,215,275,56,0,207,"destination",0.0252130681818182,0.253196022727273,0.0763494318181818,0.09765625,0.0198863636363636,0,0.0735085227272727,0.974786931818182,0.746803977272727,0.923650568181818,0.90234375,0.980113636363636,1,0.926491477272727
"204","Missoula, MT",-113.9940314,46.8721284,2480,9,630,208,178,16,1,153,"destination",0.00362903225806452,0.254032258064516,0.0838709677419355,0.0717741935483871,0.00645161290322581,0.000403225806451613,0.0616935483870968,0.996370967741935,0.745967741935484,0.916129032258065,0.928225806451613,0.993548387096774,0.999596774193548,0.938306451612903
"205","Mobile, AL",-88.0398912,30.6953657,4556,125,1120,364,357,59,1,373,"destination",0.0274363476733977,0.245829675153644,0.0798946444249342,0.0783582089552239,0.0129499561018437,0.000219490781387182,0.0818700614574188,0.972563652326602,0.754170324846356,0.920105355575066,0.921641791044776,0.987050043898156,0.999780509218613,0.918129938542581
"206","Moline, IL",-90.5151342,41.5067003,3656,58,1062,347,378,39,0,362,"destination",0.0158643326039387,0.290481400437637,0.0949124726477024,0.103391684901532,0.0106673960612691,0,0.0990153172866521,0.984135667396061,0.709518599562363,0.905087527352298,0.896608315098468,0.989332603938731,1,0.900984682713348
"207","Monroe, LA",-92.1193012,32.5093109,2312,42,530,146,175,16,0,203,"destination",0.0181660899653979,0.22923875432526,0.0631487889273356,0.0756920415224913,0.0069204152249135,0,0.08780276816609,0.981833910034602,0.77076124567474,0.936851211072664,0.924307958477509,0.993079584775087,1,0.91219723183391
"208","Monterey, CA",-121.8946761,36.6002378,2840,53,775,309,191,7,0,404,"destination",0.0186619718309859,0.272887323943662,0.108802816901408,0.0672535211267606,0.00246478873239437,0,0.142253521126761,0.981338028169014,0.727112676056338,0.891197183098592,0.932746478873239,0.997535211267606,1,0.857746478873239
"209","Montgomery, AL",-86.2999689,32.3668052,2228,45,695,240,247,38,1,283,"destination",0.020197486535009,0.311938958707361,0.107719928186715,0.110861759425494,0.0170556552962298,0.000448833034111311,0.127019748653501,0.979802513464991,0.688061041292639,0.892280071813286,0.889138240574506,0.98294434470377,0.999551166965889,0.872980251346499
"210","Montrose/Delta, CO",-108.0300893,38.7030605,920,17,230,98,100,9,0,62,"destination",0.0184782608695652,0.25,0.106521739130435,0.108695652173913,0.00978260869565217,0,0.0673913043478261,0.981521739130435,0.75,0.893478260869565,0.891304347826087,0.990217391304348,1,0.932608695652174
"211","Mosinee, WI",-89.7031784,44.7930232,1705,45,397,164,166,21,1,138,"destination",0.0263929618768328,0.232844574780059,0.0961876832844575,0.0973607038123167,0.012316715542522,0.000586510263929619,0.0809384164222874,0.973607038123167,0.767155425219941,0.903812316715543,0.902639296187683,0.987683284457478,0.99941348973607,0.919061583577713
"212","Muskegon, MI",-86.2483921,43.2341813,686,28,161,46,66,10,0,50,"destination",0.0408163265306122,0.23469387755102,0.0670553935860058,0.0962099125364431,0.0145772594752187,0,0.0728862973760933,0.959183673469388,0.76530612244898,0.932944606413994,0.903790087463557,0.985422740524781,1,0.927113702623907
"213","Myrtle Beach, SC",-78.8866943,33.6890603,7670,182,1860,683,460,78,8,363,"destination",0.023728813559322,0.242503259452412,0.0890482398956975,0.059973924380704,0.0101694915254237,0.00104302477183833,0.0473272490221643,0.976271186440678,0.757496740547588,0.910951760104302,0.940026075619296,0.989830508474576,0.998956975228162,0.952672750977836
"214","Nantucket, MA",-70.099451,41.2834704,665,19,219,84,100,27,1,71,"destination",0.0285714285714286,0.329323308270677,0.126315789473684,0.150375939849624,0.0406015037593985,0.00150375939849624,0.106766917293233,0.971428571428571,0.670676691729323,0.873684210526316,0.849624060150376,0.959398496240601,0.998496240601504,0.893233082706767
"215","Nashville, TN",-86.7816016,36.1626638,61076,771,23476,4409,6565,509,35,6662,"destination",0.0126236164778309,0.384373567358701,0.0721887484445609,0.107489030060908,0.00833387910144738,0.00057305651974589,0.109077215272775,0.987376383522169,0.615626432641299,0.927811251555439,0.892510969939092,0.991666120898553,0.999426943480254,0.890922784727225
"216","New Bern/Morehead/Beaufort, NC",-76.7239774,34.6988297,823,22,265,90,102,10,1,95,"destination",0.0267314702308627,0.321992709599028,0.109356014580802,0.123936816524909,0.0121506682867558,0.00121506682867558,0.11543134872418,0.973268529769137,0.678007290400972,0.890643985419198,0.876063183475091,0.987849331713244,0.998784933171324,0.88456865127582
"217","New Haven, CT",-72.9278835,41.308274,344,42,116,33,42,11,1,38,"destination",0.122093023255814,0.337209302325581,0.0959302325581395,0.122093023255814,0.0319767441860465,0.00290697674418605,0.11046511627907,0.877906976744186,0.662790697674419,0.904069767441861,0.877906976744186,0.968023255813953,0.997093023255814,0.88953488372093
"218","New Orleans, LA",-90.0715323,29.9510658,50903,803,19003,4704,5644,483,22,5132,"destination",0.0157751016639491,0.373317879103393,0.09241105632281,0.110877551421331,0.00948863524743139,0.000432194566135591,0.100819205154902,0.984224898336051,0.626682120896607,0.90758894367719,0.889122448578669,0.990511364752569,0.999567805433864,0.899180794845097
"219","New York, NY",-74.0059728,40.7127753,218827,7921,82624,32579,20756,2356,158,22625,"destination",0.0361975441787348,0.377576807249562,0.148880165610277,0.0948511838118696,0.0107664959077262,0.000722031559176884,0.103392177382133,0.963802455821265,0.622423192750438,0.851119834389723,0.90514881618813,0.989233504092274,0.999277968440823,0.896607822617867
"220","Newark, NJ",-74.1723667,40.735657,123910,3889,50373,27887,9004,1208,36,11384,"destination",0.0313856831571302,0.406528932289565,0.225058510209023,0.0726656444193366,0.00974901137922686,0.000290533451698814,0.0918731337260915,0.96861431684287,0.593471067710435,0.774941489790977,0.927334355580663,0.990250988620773,0.999709466548301,0.908126866273908
"221","Newburgh/Poughkeepsie, NY",-73.7477857,41.6230989,1515,40,581,189,242,25,1,195,"destination",0.0264026402640264,0.383498349834983,0.124752475247525,0.15973597359736,0.0165016501650165,0.00066006600660066,0.128712871287129,0.973597359735974,0.616501650165016,0.875247524752475,0.84026402640264,0.983498349834984,0.999339933993399,0.871287128712871
"222","Newport News/Williamsburg, VA",-76.492778,37.131667,1663,41,532,111,194,25,1,142,"destination",0.0246542393265183,0.319903788334336,0.0667468430547204,0.11665664461816,0.0150330727600722,0.000601322910402886,0.0853878532772099,0.975345760673482,0.680096211665664,0.93325315694528,0.88334335538184,0.984966927239928,0.999398677089597,0.91461214672279
"223","Niagara Falls, NY",-79.0377388,43.0962143,606,21,162,53,37,7,3,31,"destination",0.0346534653465347,0.267326732673267,0.0874587458745875,0.0610561056105611,0.0115511551155116,0.00495049504950495,0.0511551155115512,0.965346534653465,0.732673267326733,0.912541254125413,0.938943894389439,0.988448844884488,0.995049504950495,0.948844884488449
"224","Nome, AK",-165.4063889,64.5011111,718,32,133,49,30,10,1,23,"destination",0.0445682451253482,0.185236768802228,0.0682451253481894,0.0417827298050139,0.0139275766016713,0.00139275766016713,0.032033426183844,0.955431754874652,0.814763231197772,0.931754874651811,0.958217270194986,0.986072423398329,0.998607242339833,0.967966573816156
"225","Norfolk, VA",-76.2858726,36.8507689,14663,467,5131,1105,1569,202,2,1419,"destination",0.0318488713087363,0.349928391188706,0.0753597490281661,0.107004023733206,0.0137761713155562,0.000136397735797586,0.0967741935483871,0.968151128691264,0.650071608811294,0.924640250971834,0.892995976266794,0.986223828684444,0.999863602264202,0.903225806451613
"226","North Bend/Coos Bay, OR",-124.2242803,43.4065012,327,13,155,51,30,5,0,93,"destination",0.0397553516819572,0.474006116207951,0.155963302752294,0.0917431192660551,0.0152905198776758,0,0.284403669724771,0.960244648318043,0.525993883792049,0.844036697247706,0.908256880733945,0.984709480122324,1,0.715596330275229
"227","North Platte, NE",-100.7601454,41.1402759,152,2,30,12,10,2,0,11,"destination",0.0131578947368421,0.197368421052632,0.0789473684210526,0.0657894736842105,0.0131578947368421,0,0.0723684210526316,0.986842105263158,0.802631578947368,0.921052631578947,0.934210526315789,0.986842105263158,1,0.927631578947368
"228","Oakland, CA",-122.2711137,37.8043637,51196,595,23541,3594,6056,152,28,6954,"destination",0.0116220017188843,0.459821079771857,0.0702007969372607,0.118290491444644,0.00296898195171498,0.000546917727947496,0.13583092429096,0.988377998281116,0.540178920228143,0.929799203062739,0.881709508555356,0.997031018048285,0.999453082272053,0.86416907570904
"229","Ogden, UT",-111.9738304,41.223,55,1,4,2,2,0,0,1,"destination",0.0181818181818182,0.0727272727272727,0.0363636363636364,0.0363636363636364,0,0,0.0181818181818182,0.981818181818182,0.927272727272727,0.963636363636364,0.963636363636364,1,1,0.981818181818182
"230","Ogdensburg, NY",-75.4863364,44.6942291,68,4,14,5,3,3,0,0,"destination",0.0588235294117647,0.205882352941176,0.0735294117647059,0.0441176470588235,0.0441176470588235,0,0,0.941176470588235,0.794117647058824,0.926470588235294,0.955882352941177,0.955882352941177,1,1
"231","Oklahoma City, OK",-97.5164276,35.4675602,17168,170,6375,1309,1882,158,5,1794,"destination",0.00990214352283318,0.371330382106244,0.0762465051258155,0.109622553588071,0.00920316868592731,0.000291239515377446,0.104496738117428,0.990097856477167,0.628669617893756,0.923753494874185,0.890377446411929,0.990796831314073,0.999708760484623,0.895503261882572
"232","Omaha, NE",-95.9345034,41.2565369,20867,223,7530,1510,2127,211,6,2225,"destination",0.0106867302439258,0.3608568553218,0.0723630612929506,0.10193127905305,0.010111659558154,0.000287535342885896,0.10662768965352,0.989313269756074,0.6391431446782,0.927636938707049,0.89806872094695,0.989888340441846,0.999712464657114,0.89337231034648
"233","Ontario, CA",-117.6508876,34.0633443,21106,161,8614,1441,2474,78,18,2795,"destination",0.00762816260778925,0.408130389462712,0.0682744243343125,0.117217852743296,0.00369563157396001,0.000852838055529233,0.1324267980669,0.992371837392211,0.591869610537288,0.931725575665687,0.882782147256704,0.99630436842604,0.999147161944471,0.8675732019331
"234","Orlando, FL",-81.3792365,28.5383355,129171,2509,48115,13590,14780,1163,97,12988,"destination",0.0194238644897074,0.372490729343274,0.105209373621014,0.114421967779145,0.00900356891252681,0.000750942549024162,0.100548884811606,0.980576135510293,0.627509270656726,0.894790626378986,0.885578032220855,0.990996431087473,0.999249057450976,0.899451115188394
"235","Owensboro, KY",-87.1111676,37.7719074,37,3,15,2,5,0,0,9,"destination",0.0810810810810811,0.405405405405405,0.0540540540540541,0.135135135135135,0,0,0.243243243243243,0.918918918918919,0.594594594594595,0.945945945945946,0.864864864864865,1,1,0.756756756756757
"236","Paducah, KY",-88.6000478,37.0833893,688,22,191,65,55,4,0,69,"destination",0.0319767441860465,0.277616279069767,0.0944767441860465,0.0799418604651163,0.00581395348837209,0,0.100290697674419,0.968023255813953,0.722383720930233,0.905523255813953,0.920058139534884,0.994186046511628,1,0.899709302325581
"237","Palm Springs, CA",-116.5452921,33.8302961,9600,64,2598,954,690,56,1,857,"destination",0.00666666666666667,0.270625,0.099375,0.071875,0.00583333333333333,0.000104166666666667,0.0892708333333333,0.993333333333333,0.729375,0.900625,0.928125,0.994166666666667,0.999895833333333,0.910729166666667
"238","Panama City, FL",-85.6602058,30.1588129,4512,75,1648,269,446,60,1,401,"destination",0.0166223404255319,0.365248226950355,0.0596187943262411,0.0988475177304965,0.0132978723404255,0.000221631205673759,0.0888741134751773,0.983377659574468,0.634751773049645,0.940381205673759,0.901152482269504,0.986702127659574,0.999778368794326,0.911125886524823
"239","Pasco/Kennewick/Richland, WA",-119.119948,46.2086683,3802,50,1047,338,269,21,0,385,"destination",0.0131509731720147,0.275381378221988,0.0889005786428196,0.0707522356654392,0.00552340873224619,0,0.101262493424513,0.986849026827985,0.724618621778012,0.91109942135718,0.929247764334561,0.994476591267754,1,0.898737506575487
"240","Pellston, MI",-84.7839364,45.552789,1026,33,235,70,65,18,7,53,"destination",0.0321637426900585,0.229044834307992,0.0682261208576998,0.0633528265107212,0.0175438596491228,0.00682261208576998,0.0516569200779727,0.967836257309941,0.770955165692008,0.9317738791423,0.936647173489279,0.982456140350877,0.99317738791423,0.948343079922027
"241","Pensacola, FL",-87.2169149,30.421309,6875,113,2171,419,626,100,4,546,"destination",0.0164363636363636,0.315781818181818,0.0609454545454545,0.0910545454545455,0.0145454545454545,0.000581818181818182,0.0794181818181818,0.983563636363636,0.684218181818182,0.939054545454545,0.908945454545455,0.985454545454545,0.999418181818182,0.920581818181818
"242","Peoria, IL",-89.5889864,40.6936488,3654,62,1035,389,333,59,1,428,"destination",0.016967706622879,0.283251231527094,0.106458675424193,0.0911330049261084,0.0161466885604817,0.000273672687465791,0.117131910235359,0.983032293377121,0.716748768472906,0.893541324575807,0.908866995073892,0.983853311439518,0.999726327312534,0.882868089764641
"243","Petersburg, AK",-132.9555556,56.8125,726,10,195,74,38,8,2,70,"destination",0.0137741046831956,0.268595041322314,0.101928374655647,0.0523415977961433,0.0110192837465565,0.00275482093663912,0.0964187327823691,0.986225895316804,0.731404958677686,0.898071625344353,0.947658402203857,0.988980716253444,0.997245179063361,0.903581267217631
"244","Philadelphia, PA",-75.1652215,39.9525839,85062,2237,27204,9018,6899,895,49,6755,"destination",0.0262984646493146,0.319813782887776,0.106016787754814,0.0811055465425219,0.0105217370858903,0.000576050410288966,0.0794126637041217,0.973701535350685,0.680186217112224,0.893983212245186,0.918894453457478,0.98947826291411,0.999423949589711,0.920587336295878
"245","Phoenix, AZ",-112.0740373,33.4483771,162306,1307,61756,16251,15113,888,107,15820,"destination",0.00805269059677399,0.380491170997991,0.100125688514288,0.0931142410015649,0.00547114709252893,0.000659248579843013,0.0974702105898734,0.991947309403226,0.619508829002009,0.899874311485712,0.906885758998435,0.994528852907471,0.999340751420157,0.902529789410127
"246","Pittsburgh, PA",-79.9958864,40.4406248,35197,600,12148,2504,3868,338,19,3515,"destination",0.0170469074068813,0.345143051964656,0.0711424269113845,0.109895729749695,0.00960309117254311,0.00053981873455124,0.0998664658919794,0.982953092593119,0.654856948035344,0.928857573088615,0.890104270250305,0.990396908827457,0.999460181265449,0.900133534108021
"247","Plattsburgh, NY",-73.4529124,44.6994873,561,8,159,52,45,3,1,21,"destination",0.0142602495543672,0.283422459893048,0.0926916221033868,0.0802139037433155,0.0053475935828877,0.0017825311942959,0.0374331550802139,0.985739750445633,0.716577540106952,0.907308377896613,0.919786096256685,0.994652406417112,0.998217468805704,0.962566844919786
"248","Pocatello, ID",-112.4506191,42.8621042,1068,3,155,76,41,7,0,36,"destination",0.00280898876404494,0.145131086142322,0.0711610486891386,0.0383895131086142,0.00655430711610487,0,0.0337078651685393,0.997191011235955,0.854868913857678,0.928838951310861,0.961610486891386,0.993445692883895,1,0.966292134831461
"249","Portland, ME",-70.2568189,43.6590993,7327,313,2475,624,923,62,4,833,"destination",0.0427187116145762,0.337791729220691,0.0851644602156408,0.125972430735635,0.00846185341886174,0.000545926027023338,0.11368909512761,0.957281288385424,0.662208270779309,0.914835539784359,0.874027569264365,0.991538146581138,0.999454073972977,0.88631090487239
"250","Portland, OR",-122.6587185,45.5122308,63678,376,20587,5322,5376,323,52,5692,"destination",0.00590470806243915,0.323298470429348,0.0835767455008009,0.0844247620842363,0.0050723954898081,0.000816608561826691,0.0893872294984139,0.994095291937561,0.676701529570652,0.916423254499199,0.915575237915764,0.994927604510192,0.999183391438173,0.910612770501586
"251","Portsmouth, NH",-70.7625532,43.0717552,115,2,41,14,15,1,1,15,"destination",0.0173913043478261,0.356521739130435,0.121739130434783,0.130434782608696,0.00869565217391304,0.00869565217391304,0.130434782608696,0.982608695652174,0.643478260869565,0.878260869565217,0.869565217391304,0.991304347826087,0.991304347826087,0.869565217391304
"252","Providence, RI",-71.4128343,41.8239891,15392,437,5835,1119,1689,139,5,1691,"destination",0.0283913721413721,0.379093035343035,0.072700103950104,0.109732328482328,0.00903066528066528,0.000324844074844075,0.109862266112266,0.971608627858628,0.620906964656965,0.927299896049896,0.890267671517671,0.990969334719335,0.999675155925156,0.890137733887734
"253","Provo, UT",-111.6585337,40.2338438,169,4,46,17,19,0,1,15,"destination",0.0236686390532544,0.272189349112426,0.100591715976331,0.112426035502959,0,0.00591715976331361,0.0887573964497041,0.976331360946746,0.727810650887574,0.899408284023669,0.887573964497041,1,0.994082840236686,0.911242603550296
"254","Pueblo, CO",-104.6091409,38.2544472,329,2,71,25,23,5,0,25,"destination",0.0060790273556231,0.21580547112462,0.0759878419452888,0.0699088145896656,0.0151975683890578,0,0.0759878419452888,0.993920972644377,0.78419452887538,0.924012158054711,0.930091185410334,0.984802431610942,1,0.924012158054711
"255","Punta Gorda, FL",-82.0453664,26.9297836,1980,11,817,288,223,27,3,310,"destination",0.00555555555555556,0.412626262626263,0.145454545454545,0.112626262626263,0.0136363636363636,0.00151515151515152,0.156565656565657,0.994444444444444,0.587373737373737,0.854545454545454,0.887373737373737,0.986363636363636,0.998484848484849,0.843434343434343
"256","Quincy, IL",-91.4098726,39.9356016,385,22,104,59,40,3,0,38,"destination",0.0571428571428571,0.27012987012987,0.153246753246753,0.103896103896104,0.00779220779220779,0,0.0987012987012987,0.942857142857143,0.72987012987013,0.846753246753247,0.896103896103896,0.992207792207792,1,0.901298701298701
"257","Raleigh/Durham, NC",-78.8636402,35.8991678,43550,790,15718,3852,5184,468,21,4428,"destination",0.0181400688863375,0.360918484500574,0.0884500574052813,0.119035591274397,0.0107462686567164,0.000482204362801378,0.101676234213548,0.981859931113662,0.639081515499426,0.911549942594719,0.880964408725603,0.989253731343284,0.999517795637199,0.898323765786452
"258","Rapid City, SD",-103.2310149,44.0805434,3546,41,845,250,250,33,1,261,"destination",0.0115623237450649,0.238296672306825,0.0705019740552735,0.0705019740552735,0.00930626057529611,0.000282007896221094,0.0736040609137056,0.988437676254935,0.761703327693175,0.929498025944726,0.929498025944726,0.990693739424704,0.999717992103779,0.926395939086294
"259","Redding, CA",-122.3916754,40.5865396,1065,27,285,91,88,3,0,136,"destination",0.0253521126760563,0.267605633802817,0.0854460093896714,0.0826291079812207,0.0028169014084507,0,0.127699530516432,0.974647887323944,0.732394366197183,0.914553990610329,0.917370892018779,0.997183098591549,1,0.872300469483568
"260","Reno, NV",-119.8138027,39.5296329,16593,93,6648,1379,1925,90,9,2104,"destination",0.00560477309708913,0.400650876875791,0.0831073344181281,0.116012776472006,0.00542397396492497,0.000542397396492497,0.126800458024468,0.994395226902911,0.599349123124209,0.916892665581872,0.883987223527994,0.994576026035075,0.999457602603507,0.873199541975532
"261","Rhinelander, WI",-89.4120753,45.6366228,726,19,135,27,20,6,0,30,"destination",0.0261707988980716,0.18595041322314,0.0371900826446281,0.0275482093663912,0.00826446280991736,0,0.0413223140495868,0.973829201101928,0.81404958677686,0.962809917355372,0.972451790633609,0.991735537190083,1,0.958677685950413
"262","Richmond, VA",-77.4360481,37.5407246,18166,419,6392,1680,2352,222,10,2032,"destination",0.0230650666079489,0.351866123527469,0.0924804579984587,0.129472641197842,0.0122206319497963,0.000550478916657492,0.111857315864802,0.976934933392051,0.648133876472531,0.907519542001541,0.870527358802158,0.987779368050204,0.999449521083343,0.888142684135198
"263","Roanoke, VA",-79.9414266,37.2709704,1765,38,582,168,199,33,0,167,"destination",0.0215297450424929,0.329745042492918,0.0951841359773371,0.112747875354108,0.0186968838526912,0,0.0946175637393768,0.978470254957507,0.670254957507082,0.904815864022663,0.887252124645892,0.981303116147309,1,0.905382436260623
"264","Rochester, MN",-92.4801989,44.0121221,3116,73,944,347,301,29,0,381,"destination",0.0234274711168164,0.302952503209243,0.111360718870347,0.0965982028241335,0.00930680359435173,0,0.122272143774069,0.976572528883184,0.697047496790757,0.888639281129653,0.903401797175867,0.990693196405648,1,0.877727856225931
"265","Rochester, NY",-77.6088465,43.1565779,9690,298,3208,739,1143,111,2,966,"destination",0.0307533539731682,0.331062951496388,0.0762641898864809,0.117956656346749,0.0114551083591331,0.000206398348813209,0.0996904024767802,0.969246646026832,0.668937048503612,0.923735810113519,0.882043343653251,0.988544891640867,0.999793601651187,0.90030959752322
"266","Rock Springs, WY",-109.2029043,41.5874644,673,6,128,34,37,0,0,54,"destination",0.00891530460624071,0.190193164933135,0.050520059435364,0.0549777117384844,0,0,0.0802377414561664,0.991084695393759,0.809806835066865,0.949479940564636,0.945022288261516,1,1,0.919762258543834
"267","Rockford, IL",-89.0939952,42.2711311,258,0,58,14,17,0,1,14,"destination",0,0.224806201550388,0.0542635658914729,0.0658914728682171,0,0.00387596899224806,0.0542635658914729,1,0.775193798449612,0.945736434108527,0.934108527131783,1,0.996124031007752,0.945736434108527
"268","Roswell, NM",-104.5230242,33.3942655,715,10,120,32,36,8,1,36,"destination",0.013986013986014,0.167832167832168,0.0447552447552448,0.0503496503496504,0.0111888111888112,0.0013986013986014,0.0503496503496504,0.986013986013986,0.832167832167832,0.955244755244755,0.94965034965035,0.988811188811189,0.998601398601399,0.94965034965035
"269","Sacramento, CA",-121.4943996,38.5815719,45836,291,18601,3075,4969,228,32,5841,"destination",0.00634872152892923,0.405816388864648,0.0670870058469325,0.108408238066149,0.00497425604328475,0.000698141199057509,0.127432585740466,0.993651278471071,0.594183611135352,0.932912994153067,0.891591761933851,0.995025743956715,0.999301858800942,0.872567414259534
"270","Saginaw/Bay City/Midland, MI",-84.081498,43.538647,2715,40,621,180,191,29,0,217,"destination",0.0147329650092081,0.228729281767956,0.0662983425414365,0.0703499079189687,0.0106813996316759,0,0.079926335174954,0.985267034990792,0.771270718232044,0.933701657458563,0.929650092081031,0.989318600368324,1,0.920073664825046
"271","Salina, KS",-97.6114237,38.8402805,57,0,15,9,6,0,0,7,"destination",0,0.263157894736842,0.157894736842105,0.105263157894737,0,0,0.12280701754386,1,0.736842105263158,0.842105263157895,0.894736842105263,1,1,0.87719298245614
"272","Salt Lake City, UT",-111.8910474,40.7607793,112296,421,31163,6770,7324,696,58,8369,"destination",0.00374902044596424,0.277507658331552,0.0602870983828453,0.0652204887084135,0.00619790553537081,0.000516492127947567,0.0745262520481584,0.996250979554036,0.722492341668448,0.939712901617155,0.934779511291587,0.993802094464629,0.999483507872052,0.925473747951842
"273","San Angelo, TX",-100.4370375,31.4637723,1074,16,224,77,79,9,0,92,"destination",0.0148975791433892,0.208566108007449,0.0716945996275605,0.0735567970204842,0.00837988826815642,0,0.0856610800744879,0.985102420856611,0.791433891992551,0.928305400372439,0.926443202979516,0.991620111731844,1,0.914338919925512
"274","San Antonio, TX",-98.4936282,29.4241219,35326,391,14155,2670,4039,362,14,4011,"destination",0.0110683349374398,0.400696370944913,0.0755817245088603,0.114335050670894,0.0102474098397781,0.000396308667836721,0.113542433335221,0.98893166506256,0.599303629055087,0.92441827549114,0.885664949329106,0.989752590160222,0.999603691332163,0.886457566664779
"275","San Diego, CA",-117.1610838,32.715738,86860,791,32905,7286,8612,541,56,8840,"destination",0.00910660833525213,0.378827999078978,0.0838821091411467,0.0991480543403178,0.00622841353902832,0.000644715634354133,0.101772967994474,0.990893391664748,0.621172000921022,0.916117890858853,0.900851945659682,0.993771586460972,0.999355284365646,0.898227032005526
"276","San Francisco, CA",-122.4194155,37.7749295,177687,2562,66135,30781,12764,1771,94,18174,"destination",0.0144186125040099,0.372199429333603,0.17323158137624,0.0718341803283302,0.00996696438118714,0.000529020130904343,0.102280977223995,0.98558138749599,0.627800570666396,0.82676841862376,0.92816581967167,0.990033035618813,0.999470979869096,0.897719022776005
"277","San Jose, CA",-121.8863286,37.3382082,51163,374,19323,3449,5197,190,28,6058,"destination",0.00730997009557688,0.37767527314661,0.0674119969509216,0.101577311729179,0.00371362117154975,0.000547270488438911,0.118405879248676,0.992690029904423,0.62232472685339,0.932588003049078,0.898422688270821,0.99628637882845,0.999452729511561,0.881594120751324
"278","San Luis Obispo, CA",-120.6596156,35.2827524,3818,61,988,513,278,20,2,488,"destination",0.0159769512833944,0.258774227344159,0.134363541121006,0.072812991094814,0.00523834468308015,0.000523834468308015,0.127815610267156,0.984023048716606,0.741225772655841,0.865636458878994,0.927187008905186,0.99476165531692,0.999476165531692,0.872184389732844
"279","Sanford, FL",-81.269453,28.8028612,3311,25,1491,461,444,75,9,640,"destination",0.00755058894593778,0.450317124735729,0.139232860163093,0.134098459679855,0.0226517668378134,0.0027182120205376,0.193295077016007,0.992449411054062,0.549682875264271,0.860767139836907,0.865901540320145,0.977348233162187,0.997281787979462,0.806704922983993
"280","Santa Ana, CA",-117.867653,33.7454725,41959,303,14850,2853,3904,233,20,3932,"destination",0.00722133511284826,0.353916918897019,0.0679949474486999,0.0930432088467313,0.00555303987225625,0.000476655783026288,0.0937105269429681,0.992778664887152,0.646083081102981,0.9320050525513,0.906956791153269,0.994446960127744,0.999523344216974,0.906289473057032
"281","Santa Barbara, CA",-119.6981901,34.4208305,5830,112,1490,546,405,35,1,662,"destination",0.0192109777015437,0.25557461406518,0.0936535162950257,0.0694682675814751,0.00600343053173242,0.000171526586620926,0.113550600343053,0.980789022298456,0.74442538593482,0.906346483704974,0.930531732418525,0.993996569468268,0.999828473413379,0.886449399656947
"282","Santa Fe, NM",-105.937799,35.6869752,1457,7,319,80,139,1,0,96,"destination",0.00480439258750858,0.218943033630748,0.0549073438572409,0.0954015099519561,0.000686341798215511,0,0.0658888126286891,0.995195607412491,0.781056966369252,0.945092656142759,0.904598490048044,0.999313658201785,1,0.934111187371311
"283","Santa Maria, CA",-120.4357191,34.9530337,52,0,8,0,1,0,0,1,"destination",0,0.153846153846154,0,0.0192307692307692,0,0,0.0192307692307692,1,0.846153846153846,1,0.980769230769231,1,1,0.980769230769231
"284","Santa Rosa, CA",-122.7140548,38.440429,1484,74,413,168,107,9,0,198,"destination",0.0498652291105121,0.278301886792453,0.113207547169811,0.0721024258760108,0.00606469002695418,0,0.133423180592992,0.950134770889488,0.721698113207547,0.886792452830189,0.927897574123989,0.993935309973046,1,0.866576819407008
"285","Sarasota/Bradenton, FL",-82.5306527,27.3364347,3923,70,1227,306,370,57,0,222,"destination",0.0178434871271986,0.312770838643895,0.0780015294417538,0.0943155748151925,0.0145296966607188,0,0.0565893448891155,0.982156512872801,0.687229161356105,0.921998470558246,0.905684425184808,0.985470303339281,1,0.943410655110885
"286","Sault Ste. Marie, MI",-84.3475876,46.4977115,676,12,168,43,50,5,0,53,"destination",0.0177514792899408,0.248520710059172,0.0636094674556213,0.0739644970414201,0.00739644970414201,0,0.0784023668639053,0.982248520710059,0.751479289940828,0.936390532544379,0.92603550295858,0.992603550295858,1,0.921597633136095
"287","Savannah, GA",-81.091203,32.0808989,9943,279,2968,722,933,142,5,774,"destination",0.0280599416675048,0.298501458312381,0.0726138992255858,0.093834858694559,0.0142814040028161,0.000502866338127326,0.07784370914211,0.971940058332495,0.701498541687619,0.927386100774414,0.906165141305441,0.985718595997184,0.999497133661873,0.92215629085789
"288","Scottsbluff, NE",-103.6671662,41.8666341,156,2,34,14,13,4,0,14,"destination",0.0128205128205128,0.217948717948718,0.0897435897435897,0.0833333333333333,0.0256410256410256,0,0.0897435897435897,0.987179487179487,0.782051282051282,0.91025641025641,0.916666666666667,0.974358974358974,1,0.91025641025641
"289","Scranton/Wilkes-Barre, PA",-75.9927652,41.2981769,2408,57,747,183,224,34,1,255,"destination",0.0236710963455149,0.310215946843854,0.0759966777408638,0.0930232558139535,0.0141196013289037,0.000415282392026578,0.105897009966777,0.976328903654485,0.689784053156146,0.924003322259136,0.906976744186047,0.985880398671096,0.999584717607973,0.894102990033223
"290","Seattle, WA",-122.3320708,47.6062095,139124,865,42554,15545,9542,1067,130,9985,"destination",0.00621747505822144,0.305871021534746,0.111734855237055,0.0685862971162416,0.00766941721054599,0.000934418216842529,0.0717705068859435,0.993782524941779,0.694128978465254,0.888265144762945,0.931413702883758,0.992330582789454,0.999065581783158,0.928229493114057
"291","Shreveport, LA",-93.7501789,32.5251516,5282,99,1294,358,485,33,0,430,"destination",0.0187429004165089,0.244982960999621,0.067777357061719,0.0918212798182507,0.00624763347216963,0,0.0814085573646346,0.981257099583491,0.755017039000379,0.932222642938281,0.908178720181749,0.99375236652783,1,0.918591442635365
"292","Sioux City, IA",-96.4049408,42.4963416,397,18,114,56,41,12,0,40,"destination",0.0453400503778338,0.287153652392947,0.141057934508816,0.103274559193955,0.0302267002518892,0,0.100755667506297,0.954659949622166,0.712846347607053,0.858942065491184,0.896725440806045,0.969773299748111,1,0.899244332493703
"293","Sioux Falls, SD",-96.7311034,43.5445959,4987,71,1393,457,442,78,2,410,"destination",0.0142370162422298,0.279326248245438,0.0916382594746341,0.0886304391417686,0.0156406657309003,0.000401042711048727,0.082213755764989,0.98576298375777,0.720673751754562,0.908361740525366,0.911369560858231,0.9843593342691,0.999598957288951,0.917786244235011
"294","Sitka, AK",-135.33,57.0530556,1344,14,281,93,64,4,1,72,"destination",0.0104166666666667,0.209077380952381,0.0691964285714286,0.0476190476190476,0.00297619047619048,0.000744047619047619,0.0535714285714286,0.989583333333333,0.790922619047619,0.930803571428571,0.952380952380952,0.99702380952381,0.999255952380952,0.946428571428571
"295","South Bend, IN",-86.2519898,41.6763545,5653,94,1556,492,434,71,0,620,"destination",0.0166283389350787,0.275252078542367,0.0870334335750929,0.0767733946577039,0.0125597028126658,0,0.109676278082434,0.983371661064921,0.724747921457633,0.912966566424907,0.923226605342296,0.987440297187334,1,0.890323721917566
"296","Spokane, WA",-117.4260465,47.6587802,12144,48,4000,1140,1115,72,6,1058,"destination",0.00395256916996047,0.329380764163373,0.0938735177865613,0.0918148880105402,0.00592885375494071,0.000494071146245059,0.0871212121212121,0.99604743083004,0.670619235836627,0.906126482213439,0.90818511198946,0.994071146245059,0.999505928853755,0.912878787878788
"297","Springfield, IL",-89.6501481,39.7817213,1295,31,323,116,105,14,0,129,"destination",0.0239382239382239,0.249420849420849,0.0895752895752896,0.0810810810810811,0.0108108108108108,0,0.0996138996138996,0.976061776061776,0.750579150579151,0.91042471042471,0.918918918918919,0.989189189189189,1,0.9003861003861
"298","Springfield, MO",-93.2922989,37.2089572,4700,109,1149,376,390,68,6,301,"destination",0.0231914893617021,0.244468085106383,0.08,0.0829787234042553,0.014468085106383,0.00127659574468085,0.0640425531914894,0.976808510638298,0.755531914893617,0.92,0.917021276595745,0.985531914893617,0.998723404255319,0.935957446808511
"299","St. Augustine, FL",-81.3124341,29.9012437,60,0,33,19,18,0,0,23,"destination",0,0.55,0.316666666666667,0.3,0,0,0.383333333333333,1,0.45,0.683333333333333,0.7,1,1,0.616666666666667
"300","St. Cloud, MN",-94.1632404,45.5579451,71,1,19,4,5,0,0,2,"destination",0.0140845070422535,0.267605633802817,0.0563380281690141,0.0704225352112676,0,0,0.028169014084507,0.985915492957746,0.732394366197183,0.943661971830986,0.929577464788732,1,1,0.971830985915493
"301","St. George, UT",-113.5684164,37.0965278,3031,4,442,194,128,11,0,148,"destination",0.00131969646981194,0.14582645991422,0.0640052787858792,0.0422302870339822,0.00362916529198284,0,0.0488287693830419,0.998680303530188,0.85417354008578,0.935994721214121,0.957769712966018,0.996370834708017,1,0.951171230616958
"302","St. Louis, MO",-90.1994042,38.6270025,59344,710,23391,4209,6322,401,32,6699,"destination",0.0119641412779725,0.394159476947964,0.070925451604206,0.10653141008358,0.0067572121865732,0.000539228902669183,0.112884200593152,0.988035858722027,0.605840523052036,0.929074548395794,0.89346858991642,0.993242787813427,0.999460771097331,0.887115799406848
"303","St. Petersburg, FL",-82.6402915,27.7676008,2561,16,832,250,206,30,4,291,"destination",0.00624755954705193,0.3248730964467,0.0976181179226864,0.0804373291682936,0.0117141741507224,0.00156188988676298,0.113627489262007,0.993752440452948,0.6751269035533,0.902381882077314,0.919562670831706,0.988285825849278,0.998438110113237,0.886372510737993
"304","State College, PA",-77.8600012,40.7933949,1493,17,411,102,126,11,1,140,"destination",0.0113864701942398,0.275284661754856,0.0683188211654387,0.0843938379102478,0.00736771600803751,0.000669792364367046,0.0937709310113865,0.98861352980576,0.724715338245144,0.931681178834561,0.915606162089752,0.992632283991962,0.999330207635633,0.906229068988614
"305","Staunton, VA",-79.0716958,38.149576,75,2,14,8,4,2,0,9,"destination",0.0266666666666667,0.186666666666667,0.106666666666667,0.0533333333333333,0.0266666666666667,0,0.12,0.973333333333333,0.813333333333333,0.893333333333333,0.946666666666667,0.973333333333333,1,0.88
